suburb_id,suburb,postcode,name,types,rating,user_ratings_total,lng,lat,formatted_address
1,Abbotsbury,2176,Amoretti's Restaurant,restaurant,4.2,287,150.8589715,-33.8823064,"745 Elizabeth Dr, Abbotsbury NSW 2176, Australia"
1,Abbotsbury,2176,Cugini & Co,restaurant,4.8,36,150.865261,-33.8696244,"Shop 4/60-68 Stockdale Cres, Abbotsbury NSW 2176, Australia"
1,Abbotsbury,2176,Parx Coffee House,restaurant,4.5,262,150.8651897,-33.8698547,"2/60-68 Stockdale Cres, Abbotsbury NSW 2176, Australia"
1,Abbotsbury,2176,RT Pl | Af Pl Se,restaurant,0,0,150.8665012,-33.8692928,"55 Stockdale Cres, Abbotsbury NSW 2176, Australia"
2,Abbotsford,2046,Andiamo Trattoria Abbotsford,restaurant,4.4,255,151.128095,-33.847487,"565 Great N Rd, Abbotsford NSW 2046, Australia"
2,Abbotsford,2046,"Watergrill Restaurant, Abbotsford",restaurant,3.8,133,151.1275473,-33.844305,"613 Great N Rd, Abbotsford NSW 2046, Australia"
2,Abbotsford,2046,Due Passi - Italian Street Food,restaurant,4.6,98,151.1280262,-33.8475988,"563 Great N Rd, Abbotsford NSW 2046, Australia"
2,Abbotsford,2046,Miniko,restaurant,4.7,22,151.1280201,-33.8477195,"559 Great N Rd, Abbotsford NSW 2046, Australia"
2,Abbotsford,2046,Donny's Pizza,restaurant,4.6,122,151.1279688,-33.8482046,"547 Great N Rd, Abbotsford NSW 2046, Australia"
5,Aberdare,2325,Aberdare Take Away Shop,restaurant,3.9,90,151.3729451,-32.8430366,"69 Aberdare Rd, Aberdare NSW 2325, Australia"
5,Aberdare,2325,Restaurant 22Tom,restaurant,5,5,151.3829474,-32.8418249,"43 Comerford Cl, Aberdare NSW 2325, Australia"
6,Aberdeen,2336,Pete's Pizza,restaurant,4.7,45,150.8913041,-32.1729907,"2/172 - 182 New England Hwy, Aberdeen NSW 2336, Australia"
8,Aberglasslyn,2320,Mckeachies Corner Cafe,restaurant,4.5,83,151.5399127,-32.7026203,"8 McKeachie Dr, Aberglasslyn NSW 2320, Australia"
9,Abermain,2326,Ridgey Didge Pies,restaurant,4.4,136,151.4380518,-32.8118113,"139 Cessnock Rd, Abermain NSW 2326, Australia"
9,Abermain,2326,Leonie's Burgers and Seafood,restaurant,4.1,8,151.4321998,-32.8107561,"205 Cessnock Rd, Abermain NSW 2326, Australia"
14,Adaminaby,2629,THE Bake House,restaurant,4.5,93,148.7743261,-35.9964891,"11 Denison St, Adaminaby NSW 2630, Australia"
14,Adaminaby,2629,Adaminaby Bowling Bistro,restaurant,4.8,4,148.7757296,-35.9978982,"Adaminaby NSW 2629, Australia"
15,Adamstown,2289,The Brasserie at The Merewether,restaurant,5,1,151.73287,-32.9407143,"40 King St, Adamstown NSW 2289, Australia"
15,Adamstown,2289,Asian Delight,restaurant,4.3,76,151.7258528,-32.93495,"267 Brunker Rd, Adamstown NSW 2289, Australia"
15,Adamstown,2289,Mrs Lin's Kitchen,restaurant,4.1,16,151.7259433,-32.9357298,"3b/289 Brunker Rd, Adamstown NSW 2289, Australia"
15,Adamstown,2289,Harry's Gourmet Pizza,restaurant,4.3,85,151.725846,-32.9347967,"263 Brunker Rd, Adamstown NSW 2289, Australia"
15,Adamstown,2289,The Gates Hotel,restaurant,4.3,336,151.7212401,-32.9334359,"660 Glebe Rd, Adamstown NSW 2289, Australia"
15,Adamstown,2289,Mixed Spices Thai Restaurant,restaurant,4.3,8,151.7294036,-32.9335697,"18-20 Bryant St, Adamstown NSW 2289, Australia"
15,Adamstown,2289,Maxi's Caffe,restaurant,4.1,24,151.7255202,-32.9349641,"266 Brunker Rd, Adamstown NSW 2289, Australia"
15,Adamstown,2289,Fernleigh Cafe,restaurant,4.4,189,151.7167,-32.9388104,"89 Fletcher St, Adamstown NSW 2289, Australia"
15,Adamstown,2289,Adam's Ribs And Pizza,restaurant,4.4,321,151.7293092,-32.9345904,"548 Glebe Rd, Adamstown NSW 2289, Australia"
15,Adamstown,2289,The Ritz Cafe,restaurant,3.7,53,151.7258315,-32.9349256,"265 Brunker Rd, Adamstown NSW 2289, Australia"
15,Adamstown,2289,Henny Penny Foods,restaurant,3.9,60,151.7256328,-32.9360841,"281/293 Brunker Rd, Adamstown NSW 2553, Australia"
15,Adamstown,2289,Brunker Kebabs & Take-away,restaurant,4.1,29,151.7259861,-32.9345431,"255A Brunker Rd, Adamstown NSW 2289, Australia"
15,Adamstown,2289,Domino's Pizza Adamstown,restaurant,4,89,151.725632,-32.93478,"260 Brunker Rd, Adamstown NSW 2289, Australia"
15,Adamstown,2289,Pekárna,restaurant,4.6,76,151.7257099,-32.935568,"277 Brunker Rd, Adamstown NSW 2289, Australia"
15,Adamstown,2289,The Barn Adamstown,restaurant,4.3,241,151.728586,-32.9310269,"30 Narara Rd, Adamstown NSW 2289, Australia"
15,Adamstown,2289,Hungry Wolf's Pizza Adamstown,restaurant,4.1,15,151.72572,-32.9357163,"1/289 Brunker Rd, Adamstown NSW 2289, Australia"
15,Adamstown,2289,The Nags Head Hotel,restaurant,4.3,175,151.7255274,-32.9351018,"272 Brunker Rd, Adamstown NSW 2289, Australia"
15,Adamstown,2289,Secret Garden Asian Cuisine Restaurant,restaurant,5,1,151.7296393,-32.9331015,"34/2 Bryant St, Adamstown NSW 2289, Australia"
15,Adamstown,2289,Foodworks,restaurant,4.2,10,151.725891,-32.9345747,"257 Brunker Rd, Adamstown NSW 2289, Australia"
15,Adamstown,2289,7-Eleven Adamstown,restaurant,3.4,9,151.7295567,-32.9350125,"531-537 Glebe Rd, Adamstown NSW 2289, Australia"
17,Adelong,2729,Adelong Cafe,restaurant,4.4,93,148.0654109,-35.3088293,"49 Tumut St, Adelong NSW 2729, Australia"
17,Adelong,2729,"The Royal Hotel, Adelong",restaurant,4.5,128,148.0659717,-35.3090188,"45 Tumut St, Adelong NSW 2729, Australia"
21,Airds,2560,BP,restaurant,4.1,21,150.8287235,-34.0859355,"56-60 Riverside Dr, Airds NSW 2560, Australia"
24,Albion Park,2527,Ravensthorpe Guesthouse and Restaurant,restaurant,4.7,99,150.7860494,-34.5692424,"56 Tongarra Rd, Albion Park NSW 2527, Australia"
24,Albion Park,2527,Tongarra Thai,restaurant,4.4,82,150.7733326,-34.5707166,"Unit 3/150 Tongarra Rd, Albion Park NSW 2527, Australia"
24,Albion Park,2527,Joe's Milkbar,restaurant,4.7,161,150.774752,-34.572318,"Shop 11, Albion Park Shopping VIllage, Entrance to carpark on Russel St, Albion Park NSW 2527, Australia"
24,Albion Park,2527,Il Lago Pizzeria,restaurant,4.2,16,150.7609529,-34.5741606,"3/7 Sophia St, Albion Park NSW 2527, Australia"
24,Albion Park,2527,Pinocchio Pizza Albion Park,restaurant,4.2,118,150.777041,-34.5792456,"148 Terry St, Albion Park NSW 2527, Australia"
24,Albion Park,2527,Blue Jay Cafe,restaurant,4.6,311,150.760887,-34.57423,"Shop 1/7 Sophia St, Albion Park NSW 2527, Australia"
24,Albion Park,2527,Delicious Delights,restaurant,4.4,103,150.7741135,-34.5710253,"3/149 Tongarra Rd, Albion Park NSW 2527, Australia"
24,Albion Park,2527,Terry Street Take Away,restaurant,4.3,88,150.7772965,-34.5794407,"1/156 Terry St, Albion Park NSW 2527, Australia"
24,Albion Park,2527,Domino's Pizza Albion Park,restaurant,3.9,69,150.7731824,-34.5707169,"shop 1/150 Tongarra Rd, Albion Park NSW 2527, Australia"
24,Albion Park,2527,Subway,restaurant,4.4,25,150.7745428,-34.5724513,"10 Terry St, Albion Park NSW 2527, Australia"
24,Albion Park,2527,BackBurner Cafe & Takeaway,restaurant,4.6,61,150.7860733,-34.5882614,"175 Ashburton Dr, Albion Park NSW 2527, Australia"
24,Albion Park,2527,Bean 2 The Valley,restaurant,4.7,30,150.765493,-34.571305,"1/220 Tongarra Rd, Albion Park NSW 2527, Australia"
24,Albion Park,2527,Golden Century,restaurant,3.5,86,150.775256,-34.570578,"134 Tongarra Rd, Albion Park NSW 2527, Australia"
24,Albion Park,2527,Moon Fresh Sushi Albion Park,restaurant,4.2,34,150.7728781,-34.5712,"2/171 Tongarra Rd, Albion Park NSW 2527, Australia"
24,Albion Park,2527,Albion Park Hotel,restaurant,4.3,256,150.7748367,-34.57103,"Cnr Tongarra &, Terry St, Albion Park NSW 2527, Australia"
24,Albion Park,2527,Park Bistro,restaurant,0,0,150.7691432,-34.5709363,"178 Tongarra Rd, Albion Park NSW 2527, Australia"
24,Albion Park,2527,KFC Albion Park 2,restaurant,3.5,347,150.7743302,-34.5710657,"145-147 Tongarra Rd, Albion Park NSW 2527, Australia"
24,Albion Park,2527,Niu's Kitchen,restaurant,3,31,150.7736376,-34.5710978,"157 Tongarra Rd, Albion Park NSW 2527, Australia"
24,Albion Park,2527,Oporto Albion Park Drive Thru,restaurant,4.2,468,150.7892455,-34.5526414,"47 Princes Hwy, Albion Park NSW 2527, Australia"
24,Albion Park,2527,Tongarra Chickens,restaurant,3.2,16,150.7728778,-34.5707185,"154 Tongarra Rd, Albion Park NSW 2527, Australia"
24,Albion Park,2527,McDonald's Albion Park Rail,restaurant,3.4,2121,150.803021,-34.567227,"251 Princes Hwy, Albion Park NSW 2527, Australia"
25,Albion Park Rail,2527,Ready Set Play,restaurant,4.4,103,150.8161269,-34.5733316,"2/10 Shaban St, Albion Park Rail NSW 2527, Australia"
25,Albion Park Rail,2527,7-Eleven Albion Park Rail,restaurant,3.7,13,150.7936141,-34.5589467,"138 Princes Hwy, Albion Park Rail NSW 2527, Australia"
25,Albion Park Rail,2527,Leong Ho Cafe,restaurant,4.4,75,150.7962975,-34.5610492,"5/179 Princes Hwy, Albion Park Rail NSW 2527, Australia"
25,Albion Park Rail,2527,The Golden Loy,restaurant,4.4,187,150.796989,-34.561963,"193 Princes Hwy, Albion Park Rail NSW 2527, Australia"
25,Albion Park Rail,2527,Subway Albion Park Rail,restaurant,3.8,18,150.7894287,-34.5530776,"Unit 1/61 Princes Hwy, Albion Park Rail NSW 2527, Australia"
25,Albion Park Rail,2527,Sneaky Burger,restaurant,4.3,493,150.7905162,-34.5543733,"Albion Park Rail NSW 2527, Australia"
25,Albion Park Rail,2527,Sams Kebab,restaurant,4.6,35,150.8034395,-34.56777,"255 Princes Hwy, Albion Park Rail NSW 2527, Australia"
25,Albion Park Rail,2527,Rivulet Takeaway,restaurant,4.3,15,150.7868323,-34.5484391,"1/6 Rivulet Cres, Albion Park Rail NSW 2527, Australia"
25,Albion Park Rail,2527,Taco Bell Albion Park Rail,restaurant,4.3,4,150.789609,-34.553902,"2/61 Princes Hwy, Albion Park Rail NSW 2527, Australia"
25,Albion Park Rail,2527,K & K Pizza,restaurant,3.4,9,150.8014237,-34.5664934,"2/245 Princes Hwy, Albion Park Rail NSW 2527, Australia"
25,Albion Park Rail,2527,Burgos Place,restaurant,5,1,150.8164653,-34.5749638,"3/33-37 Durgadin Dr, Albion Park Rail NSW 2527, Australia"
26,Albury,2640,Albury Kebab Restaurant,restaurant,3.7,71,146.9214362,-36.0816662,"449B Dean St, Albury NSW 2640, Australia"
26,Albury,2640,The Bended Elbow,restaurant,4.3,970,146.919599,-36.081006,"480 Dean St, Albury NSW 2640, Australia"
26,Albury,2640,Green Zebra,restaurant,4.2,176,146.919312,-36.0809636,"484 Dean St, Albury NSW 2640, Australia"
26,Albury,2640,La Tierra Restaurant,restaurant,3.4,16,146.9165631,-36.0827248,"524 Smollett St, Albury NSW 2640, Australia"
26,Albury,2640,Sweethearts Pizza,restaurant,4.3,207,146.9200569,-36.0813654,"471 Dean St, Albury NSW 2640, Australia"
26,Albury,2640,Zed Bar,restaurant,4.1,244,146.91492,-36.0804458,"586 Dean St, Albury NSW 2640, Australia"
26,Albury,2640,Chopstix House,restaurant,4.4,49,146.9165819,-36.08189,"8/11 Volt Ln, Albury NSW 2640, Australia"
26,Albury,2640,As Thick As Thieves,restaurant,4.6,124,146.9218847,-36.0817625,"441 Dean St, Albury NSW 2640, Australia"
26,Albury,2640,Hog's Australia's Steakhouse Albury,restaurant,3.7,393,146.9125645,-36.080756,"493 Townsend St, Albury NSW 2640, Australia"
26,Albury,2640,Baan Sabai Jai Thai Restaurant,restaurant,3.7,184,146.9205556,-36.0836111,"459 Smollett St, Albury NSW 2640, Australia"
26,Albury,2640,Roadhouse Bar and Grill,restaurant,3.5,2,146.9123515,-36.0798273,"648, Atura, Dean St, Albury NSW 2640, Australia"
26,Albury,2640,Commercial Club Albury,restaurant,4,1693,146.9136353,-36.0803183,"618 Dean St, Albury NSW 2640, Australia"
26,Albury,2640,Crust Pizza Albury,restaurant,4.3,73,146.9187713,-36.0794427,"550 Olive St, Albury NSW 2640, Australia"
26,Albury,2640,Cafe Musette,restaurant,4.4,211,146.9238583,-36.0836278,"2/480 Young St, Albury NSW 2640, Australia"
26,Albury,2640,Schnitz,restaurant,3.9,117,146.9153266,-36.081489,"West End Plaza, Shop SP001, 1/487 Kiewa St, Albury NSW 2640, Australia"
26,Albury,2640,Timber,restaurant,4.2,81,146.919597,-36.080646,"480, 1 Ritz Arcade, Dean St, Albury NSW 2640, Australia"
26,Albury,2640,Willow & Co,restaurant,4.5,77,146.914297,-36.0806769,"603 Dean St, Albury NSW 2640, Australia"
26,Albury,2640,Early Bird Cafe,restaurant,4.3,159,146.9166221,-36.0809322,"1/553 Dean St, Albury NSW 2640, Australia"
26,Albury,2640,Westminster Restaurant,restaurant,4.4,5,146.9244127,-36.076762,"593 Young St, Albury NSW 2640, Australia"
26,Albury,2640,Jones Street Take Away,restaurant,4.3,51,146.9130186,-36.0734448,"3/635 Jones St, Albury NSW 2640, Australia"
26,Albury,2640,Bistro Selle,restaurant,4.9,83,146.917744,-36.0826124,"1/467 Olive St, Albury NSW 2640, Australia"
26,Albury,2640,Oppy's Pasta,restaurant,4.7,141,146.9179056,-36.0814701,"7/501 Dean St, Albury NSW 2640, Australia"
26,Albury,2640,Cafe Dalchini,restaurant,4.8,125,146.9212364,-36.0816268,"451 Dean St, Albury NSW 2640, Australia"
26,Albury,2640,Indian Chimney Restaurant,restaurant,4.4,330,146.911698,-36.0800022,"662 Dean St, Albury NSW 2640, Australia"
26,Albury,2640,Mr. Benedict,restaurant,4.6,486,146.9116578,-36.08004,"664 Dean St, Albury NSW 2640, Australia"
26,Albury,2640,Downtown Pizzeria,restaurant,4.4,550,146.9200057,-36.0810566,"472 Dean St, Albury NSW 2640, Australia"
26,Albury,2640,H A P I,restaurant,4.4,215,146.9202974,-36.0814906,"465C Dean St, Albury NSW 2640, Australia"
26,Albury,2640,South Cali Cantina,restaurant,4.4,220,146.9165026,-36.0809152,"Basement/553 Dean St, Albury NSW 2640, Australia"
26,Albury,2640,Din Dins,restaurant,4.4,202,146.9138899,-36.0829934,"450 Townsend St, Albury NSW 2640, Australia"
26,Albury,2640,Thai Lotus Restaurant,restaurant,4.3,134,146.914166,-36.080376,"610 Dean St, Albury NSW 2640, Australia"
26,Albury,2640,The Proprietor,restaurant,4.5,393,146.9125341,-36.08260569999999,"459 Townsend St, Albury NSW 2640, Australia"
26,Albury,2640,Thai Puka,restaurant,4.4,209,146.9119444,-36.08,"652 Dean St, Albury NSW 2640, Australia"
26,Albury,2640,Canvas Eatery,restaurant,4.2,183,146.916783,-36.080521,"546 Dean St, Albury NSW 2640, Australia"
26,Albury,2640,Saludos,restaurant,4.2,248,146.9118737,-36.0800755,"2/660 Dean St, Albury NSW 2640, Australia"
26,Albury,2640,Brick Lane,restaurant,4.3,300,146.9193644,-36.0812737,"479A Dean St, Albury NSW 2640, Australia"
26,Albury,2640,Zen X,restaurant,4.4,138,146.9202098,-36.081385,"467 Dean St, Albury NSW 2640, Australia"
26,Albury,2640,Bonetti's Takeaway & Delivery,restaurant,4.6,50,146.9246279,-36.0754284,"4/617-621 Young St, Albury NSW 2640, Australia"
26,Albury,2640,Taco Bill - Albury,restaurant,4.2,191,146.9217731,-36.0815694,"443 Dean St, Albury NSW 2640, Australia"
26,Albury,2640,Pinch of Spice,restaurant,3.8,58,146.9213986,-36.081237,"452 Dean St, Albury NSW 2640, Australia"
26,Albury,2640,2640 Restaurant and Bar,restaurant,4.7,45,146.9167471,-36.0781605,"550 Kiewa St, Albury NSW 2640, Australia"
26,Albury,2640,Indian Tandoori,restaurant,4.2,340,146.9223792,-36.0816551,"437 Dean St, Albury NSW 2640, Australia"
26,Albury,2640,Rebels Pizza,restaurant,4.4,239,146.925262,-36.074119,"659 Young St, Albury NSW 2640, Australia"
26,Albury,2640,Albury Chinese Restaurant,restaurant,4.1,183,146.9221511,-36.0818202,"437 Dean St, Albury NSW 2640, Australia"
26,Albury,2640,Greenstreat,restaurant,4.7,188,146.9172607,-36.0817583,"Shop 19, City Walk Arcade, Dean St, Albury NSW 2640, Australia"
26,Albury,2640,House of Ivy,restaurant,4.5,30,146.9178745,-36.0815199,"8/501 Dean St, Albury NSW 2640, Australia"
26,Albury,2640,The Food Mill,restaurant,4.8,44,146.9241881,-36.07722140000001,"424A Wilson St, Albury NSW 2640, Australia"
26,Albury,2640,Yuu Sushi,restaurant,4.4,185,146.9213783,-36.0815287,"449C Dean St, Albury NSW 2640, Australia"
26,Albury,2640,Urban Graze,restaurant,3.9,326,146.916276,-36.080928,"3/557 Dean St, Albury NSW 2640, Australia"
26,Albury,2640,NANNINI Ristorante & Pizzeria,restaurant,4.1,90,146.9123222,-36.08278790000001,"2/453 Townsend St, Albury NSW 2640, Australia"
26,Albury,2640,Guru's Star Cafe and Restaurant,restaurant,4.5,216,146.9215287,-36.0815991,"1/449A Dean St, Albury NSW 2640, Australia"
26,Albury,2640,The Chow Shop,restaurant,4.3,36,146.9171653,-36.0826702,"4/510 Smollett St, Albury NSW 2640, Australia"
26,Albury,2640,Zambrero Albury,restaurant,4.2,291,146.920463,-36.0814035,"461 Dean St, Albury NSW 2640, Australia"
26,Albury,2640,Public House,restaurant,4.2,483,146.9188323,-36.0813068,"491 Dean St, Albury NSW 2640, Australia"
26,Albury,2640,Sodens Hotel,restaurant,4.1,411,146.9218344,-36.0775216,"459 Wilson St, Albury NSW 2640, Australia"
26,Albury,2640,Pan-Lan Chinese Restaurant,restaurant,3.9,69,146.9213094,-36.0815176,"451 Dean St, Albury NSW 2640, Australia"
26,Albury,2640,Pemberton Pantry,restaurant,4.5,89,146.9065954,-36.0753454,"696 Pemberton St, Albury NSW 2640, Australia"
26,Albury,2640,Mad Mex Fresh Mexican Grill,restaurant,4.3,217,146.9153085,-36.08156,"Shop SP002, West End Plaza, 487 Kiewa St, Albury NSW 2640, Australia"
26,Albury,2640,Get Tossed Salad Bar,restaurant,4.7,40,146.9222842,-36.0813485,"440b Dean St, Albury NSW 2640, Australia"
26,Albury,2640,Albury Brewhouse,restaurant,4.4,285,146.9130423,-36.0801537,"618 Dean St, Albury NSW 2640, Australia"
29,Alexandria,2015,Chinese North Dumpling Noodle House,restaurant,4.2,86,151.1955374,-33.9021702,"Shop 10/21 Fountain St, Alexandria NSW 2015, Australia"
29,Alexandria,2015,Sub-Station Cafe Alexandria,restaurant,4.5,373,151.1955167,-33.9031765,"124 McEvoy St, Alexandria NSW 2015, Australia"
29,Alexandria,2015,Chicky Char Char,restaurant,4.3,397,151.195826,-33.90256120000001,"Shop 1/145 McEvoy St, Alexandria NSW 2015, Australia"
29,Alexandria,2015,Nando's Alexandria,restaurant,4,405,151.199295,-33.9017868,"105 McEvoy St, Alexandria NSW 2015, Australia"
29,Alexandria,2015,Bracket Brewing,restaurant,4.9,23,151.1985196,-33.9034287,"21 McCauley St, Alexandria NSW 2015, Australia"
29,Alexandria,2015,Sushi Aoki,restaurant,4,118,151.1961843,-33.9025419,"1/141 McEvoy St, Alexandria NSW 2015, Australia"
29,Alexandria,2015,Bangkok on Botany,restaurant,4.2,103,151.1975723,-33.9201248,"2/654 Botany Rd, Alexandria NSW 2015, Australia"
29,Alexandria,2015,Cafe 0.6,restaurant,4.5,232,151.1957604,-33.9043783,"1a/11 Bowden St, Alexandria NSW 2015, Australia"
29,Alexandria,2015,Seasoning Thai,restaurant,3.9,172,151.2011407,-33.9130982,"500 Botany Rd, Alexandria NSW 2015, Australia"
29,Alexandria,2015,Nutrition Station Alexandria,restaurant,4.2,91,151.2004202,-33.9147485,"Shop 3/540 Botany Rd, Alexandria NSW 2015, Australia"
29,Alexandria,2015,Made In Italy Alexandria,restaurant,4,132,151.1881289,-33.9066638,"362 Mitchell Rd, Alexandria NSW 2015, Australia"
29,Alexandria,2015,Zion Sushi Cafe,restaurant,4.2,24,151.202082,-33.910136,"398 Botany Rd, Alexandria NSW 2015, Australia"
29,Alexandria,2015,Crust Pizza Alexandria,restaurant,3.8,223,151.2013917,-33.9125,"486 Botany Rd, Alexandria NSW 2015, Australia"
29,Alexandria,2015,Mecca Coffee - Alexandria,restaurant,4.2,325,151.19999,-33.906565,"26 Bourke Rd, Alexandria NSW 2015, Australia"
29,Alexandria,2015,Rocks Brewing Co,restaurant,4.2,281,151.1918605,-33.916473,"Building 2/160 Bourke Rd, Alexandria NSW 2015, Australia"
29,Alexandria,2015,Pino's Vino e Cucina,restaurant,4.6,581,151.1909463,-33.9054767,"199 Lawrence St, Alexandria NSW 2015, Australia"
29,Alexandria,2015,Bitton Cafe and Restaurant,restaurant,4.5,638,151.1904548,-33.9003856,"36/37A Copeland St, Alexandria NSW 2015, Australia"
29,Alexandria,2015,Nguyen Brothers Alexandria,restaurant,4.4,339,151.1955683,-33.9022179,"5&6/21 Fountain St, Alexandria NSW 2015, Australia"
29,Alexandria,2015,No. 5 Restaurant and Bar,restaurant,4.5,270,151.1983145,-33.9028534,"5 McCauley St, Alexandria NSW 2015, Australia"
29,Alexandria,2015,Sushi Jones Alexandria,restaurant,4.5,274,151.1950152,-33.9022191,"shop 8/2-10 Fountain St, Alexandria NSW 2015, Australia"
29,Alexandria,2015,The Grounds of Alexandria,restaurant,4.1,2970,151.1941376,-33.9106777,"7a/2 Huntley St, Alexandria NSW 2015, Australia"
29,Alexandria,2015,The Copper Mill,restaurant,4.4,415,151.1886398,-33.9062266,"338-356 Mitchell Rd, Alexandria NSW 2015, Australia"
29,Alexandria,2015,COOH Bourke Road Alexandria,restaurant,4.3,1241,151.1955222,-33.9106044,"90-96 Bourke Rd, Alexandria NSW 2015, Australia"
29,Alexandria,2015,Photown Alexandria,restaurant,4.1,228,151.1979028,-33.9024861,"94 McEvoy St, Alexandria NSW 2015, Australia"
29,Alexandria,2015,Zona Azzurri Restaurant Pizzeria,restaurant,4.5,237,151.1915782,-33.9160404,"160 Bourke Road enter via courtyard off, News Direct Rd, Alexandria NSW 2015, Australia"
29,Alexandria,2015,Fratelli Fresh Alexandria,restaurant,3.7,738,151.1938651,-33.9003923,"52 Mitchell Rd, Alexandria NSW 2015, Australia"
29,Alexandria,2015,Al Aseel Restaurant Alexandria,restaurant,4,914,151.1935556,-33.912675,"42a/110-116 Bourke Rd, Alexandria NSW 2015, Australia"
29,Alexandria,2015,The Potting Shed,restaurant,3.9,697,151.1942388,-33.911066,"41/43 Bourke Rd, Alexandria NSW 2015, Australia"
29,Alexandria,2015,Alexandria Seafoods,restaurant,4.6,257,151.191201,-33.9034324,"196 Mitchell Rd, Alexandria NSW 2015, Australia"
29,Alexandria,2015,Ogalo Mascot,restaurant,4.9,14,151.1875145,-33.9214778,"3/42 Bourke St, Alexandria NSW 2015, Australia"
29,Alexandria,2015,Yum Yai,restaurant,4.3,180,151.1992108,-33.8972858,"45/72 Botany Rd, Alexandria NSW 2015, Australia"
29,Alexandria,2015,Pholosophy,restaurant,4.1,117,151.1942465,-33.9129322,"42b/110-116 Bourke Rd, Alexandria NSW 2015, Australia"
29,Alexandria,2015,Freddie Green's,restaurant,4.7,76,151.201768,-33.9071495,"18 O'Riordan St, Alexandria NSW 2015, Australia"
29,Alexandria,2015,Origano Wood fire pizza,restaurant,4.4,108,151.1993635,-33.9018094,"107 McEvoy St, Alexandria NSW 2015, Australia"
29,Alexandria,2015,The Grumpy Barista,restaurant,4.4,201,151.1976846,-33.8972107,"34 Henderson Rd, Alexandria NSW 2015, Australia"
29,Alexandria,2015,L’Americano Espresso Bar,restaurant,4.6,113,151.198806,-33.910566,"34 O'Riordan St, Alexandria NSW 2015, Australia"
29,Alexandria,2015,Rubric Restaurant,restaurant,4,2,151.1956818,-33.9044571,"11 Bowden St, Alexandria NSW 2015, Australia"
29,Alexandria,2015,The Nighthawk Diner,restaurant,4.5,204,151.1968864,-33.9206118,"662 Botany Rd, Alexandria NSW 2015, Australia"
29,Alexandria,2015,Meet Gerard,restaurant,4.6,318,151.1968129,-33.89747130000001,"54 Henderson Rd, Alexandria NSW 2015, Australia"
29,Alexandria,2015,McEvoy's Kitchen,restaurant,0,0,151.1979497,-33.9024929,"94 McEvoy St, Alexandria NSW 2015, Australia"
29,Alexandria,2015,Eat me! Espresso bar,restaurant,4.4,42,151.1953491,-33.9159665,"103/39 Doody St, Alexandria NSW 2015, Australia"
29,Alexandria,2015,China Blue,restaurant,4.4,7,151.1977369,-33.9198003,"648 Botany Rd, Alexandria NSW 2015, Australia"
29,Alexandria,2015,The Biggles Bar,restaurant,0,0,151.1995441,-33.9060665,"15 Bourke Rd, Alexandria NSW 2015, Australia"
29,Alexandria,2015,The Lock In,restaurant,5,1,151.1942355,-33.9109984,"41/43 Bourke Rd, Alexandria NSW 2015, Australia"
29,Alexandria,2015,Lord Raglan,restaurant,4.3,400,151.1986439,-33.8969888,"12 Henderson Rd, Alexandria NSW 2016, Australia"
29,Alexandria,2015,La Cachette Cafe,restaurant,4.1,185,151.189995,-33.904757,"270 Mitchell Rd, Alexandria NSW 2015, Australia"
29,Alexandria,2015,South Dowling Sandwiches Alexandria,restaurant,4.6,53,151.1938213,-33.9125362,"110 Bourke Rd, Alexandria NSW 2015, Australia"
29,Alexandria,2015,Bourke Street Bakery,restaurant,4.4,683,151.1937099,-33.9209029,"472-474 Gardeners Rd, Alexandria NSW 2015, Australia"
29,Alexandria,2015,Bread & Circus,restaurant,4,503,151.1954983,-33.9021436,"21 Fountain St, Alexandria NSW 2015, Australia"
29,Alexandria,2015,Iron Duke Hotel,restaurant,4.4,369,151.2011,-33.901641,"220 Botany Rd, Alexandria NSW 2015, Australia"
30,Alfords Point,2234,Stacey's Charcoal Chicken & Pizza,restaurant,3.9,54,151.0245511,-33.9932693,"5/62 Coachwood Cres, Alfords Point NSW 2234, Australia"
33,Alison,2420,Start,restaurant,0,0,151.4049521,-33.2544257,"21c Pacific Mwy, Alison NSW 2259, Australia"
33,Alison,2420,Cafe F3,restaurant,3.7,56,151.4027102,-33.255307,"Caltex Service Centre M1 Motorway, Alison NSW 2259, Australia"
34,Allambie Heights,2100,Wandee Thai Kitchen,restaurant,4.6,65,151.250038,-33.765631,"1B/141-151 Allambie Rd, Allambie Heights NSW 2100, Australia"
34,Allambie Heights,2100,La Crema Lounge,restaurant,4.8,31,151.2506245,-33.7658816,"12/141 Allambie Rd, Allambie Heights NSW 2100, Australia"
34,Allambie Heights,2100,The Allambie Pizza Shop,restaurant,4.6,68,151.2504557,-33.7656153,"141 Allambie Rd, Allambie Heights NSW 2100, Australia"
34,Allambie Heights,2100,Mr. Grigor's,restaurant,4.5,125,151.250561,-33.766275,"19 Grigor Pl, Allambie Heights NSW 2100, Australia"
34,Allambie Heights,2100,Delhi Darbar Indian Restaurant,restaurant,4.1,58,151.2502146,-33.7655474,"141 Allambie Rd, Allambie Heights NSW 2100, Australia"
34,Allambie Heights,2100,Flavour Buds Pty Ltd (Wakehurst Golf Club),restaurant,0,0,151.2433888,-33.7810097,"c/o, Wakehurst Golf Club Upper Clontarf St, Seaforth, NSW 2092, 2092, Australia"
34,Allambie Heights,2100,Wicked Chicken,restaurant,3.9,34,151.2501439,-33.7655312,"141-151 Allambie Rd, Allambie Heights NSW 2100, Australia"
34,Allambie Heights,2100,Sw Pl - Al Se So,restaurant,0,0,151.2488843,-33.7610748,"14 Anzio Ave, Allambie Heights NSW 2100, Australia"
34,Allambie Heights,2100,Fa Pl - 24 Pl So,restaurant,0,0,151.2488843,-33.7610748,"14 Anzio Ave, Allambie Heights NSW 2100, Australia"
36,Allawah,2218,Ace Pizzas,restaurant,5,9,151.1150502,-33.9702045,"460 Railway Parade, Allawah NSW 2218, Australia"
36,Allawah,2218,Thai at Allawah,restaurant,4.4,82,151.1152275,-33.9703097,"458 Railway Parade, Allawah NSW 2218, Australia"
36,Allawah,2218,Little Italy Allawah,restaurant,3.8,178,151.1158255,-33.9702698,"440 Railway Parade, Allawah NSW 2218, Australia"
36,Allawah,2218,New Goldlion Chinese Takeaway,restaurant,4.6,35,151.1149889,-33.97013889999999,"462 Railway Parade, Allawah NSW 2218, Australia"
36,Allawah,2218,Allawah Hotel,restaurant,4,431,151.113979,-33.970124,"470 Railway Parade, Allawah NSW 2218, Australia"
36,Allawah,2218,The Coffee House Allawah,restaurant,4.4,79,151.1157328,-33.9702394,"444 Railway Parade, Allawah NSW 2218, Australia"
36,Allawah,2218,Ghumti Kitchen - 2218 AU,restaurant,4.7,7,151.1135827,-33.9699989,"474 Railway Parade, Allawah NSW 2218, Australia"
36,Allawah,2218,I Spice,restaurant,5,2,151.1038305,-33.9666972,"460 Railway Parade, Allawah NSW 2218, Australia"
44,Alstonville,2477,Indo Indian Cuisine,restaurant,4.7,55,153.4403045,-28.8430291,"Shop Number - 12(Alstonville Plaza) 8-20, Robertson Street, Alstonville NSW 2477, Australia"
44,Alstonville,2477,Options In Alstonville,restaurant,4.4,39,153.4391872,-28.841191,"75 Main St, Alstonville NSW 2477, Australia"
44,Alstonville,2477,Bunga Raya Chinese Restaurant,restaurant,3.8,53,153.4399429,-28.8409685,"80 Main St, Alstonville NSW 2477, Australia"
44,Alstonville,2477,Cafe 86 on main,restaurant,4.3,142,153.4399476,-28.8414234,"86 Main St, Alstonville NSW 2477, Australia"
44,Alstonville,2477,Federal Hotel,restaurant,4.1,260,153.4394119,-28.8414466,"77 Main St, Alstonville NSW 2477, Australia"
44,Alstonville,2477,ESP Espresso Bar,restaurant,4.6,44,153.4393971,-28.8408017,"1a/76 Main St, Alstonville NSW 2477, Australia"
44,Alstonville,2477,The Trident Fish and Grill,restaurant,4.3,34,153.4398668,-28.8417343,"Shop 1/85 Main St, Alstonville NSW 2477, Australia"
44,Alstonville,2477,Russellton Takeaway,restaurant,4.7,10,153.4224206,-28.8346991,"10 Russellton Dr, Alstonville NSW 2477, Australia"
44,Alstonville,2477,Orio Cafe Patisserie Bar,restaurant,4.1,128,153.4402621,-28.8429586,"23/89 Main St, Alstonville NSW 2477, Australia"
44,Alstonville,2477,Domino's Pizza Alstonville,restaurant,3.7,54,153.4405792,-28.8424223,"24/8/20 Robertson St, Alstonville NSW 2477, Australia"
44,Alstonville,2477,Alstonville Indian Hut,restaurant,4,1,153.4387075,-28.8409967,"71 Main St, Alstonville NSW 2477, Australia"
47,Ambarvale,2560,Ambarvale Hotel,restaurant,4.2,522,150.800684,-34.086021,"57 Woodhouse Dr, Ambarvale NSW 2560, Australia"
47,Ambarvale,2560,Coco Cubano Macarthur Square,restaurant,3.6,487,150.7976067,-34.074036,"C34A Gilchrist Dr, Ambarvale NSW 2560, Australia"
47,Ambarvale,2560,Ogalo Macarthur square,restaurant,3.4,24,150.7985603,-34.0759753,"Shop No: L03 UE04, 200 Gilchrist Dr, Ambarvale NSW 2560, Australia"
47,Ambarvale,2560,Subway,restaurant,4.1,77,150.7977327,-34.0734829,"Macarthur Square Shop/Centre C43, Gilchrist Dr, Ambarvale NSW 2560, Australia"
47,Ambarvale,2560,Ogalo Macarthur Square,restaurant,3.7,27,150.7966745,-34.0730491,"200 Gilchrist Dr, Ambarvale NSW 2560, Australia"
47,Ambarvale,2560,Gloria Jean's Coffees Ambarvale,restaurant,3.7,100,150.797778,-34.075149,"KL003 L01, Gilchrist Dr, Ambarvale NSW 2560, Australia"
56,Angourie,2464,Barbaresco,restaurant,4.7,163,153.3595268,-29.4789655,"15 The Crescent, Angourie NSW 2464, Australia"
57,Anna Bay,2316,Crest Birubi Beach,restaurant,4.2,649,152.0755613,-32.7833825,"73 James Paterson St, Anna Bay NSW 2316, Australia"
57,Anna Bay,2316,Anna Bay Thai Restaurant,restaurant,4.2,84,152.0832008,-32.7775003,"125 Gan Gan Rd, Anna Bay NSW 2316, Australia"
57,Anna Bay,2316,Rubi Blue Cafe-Restaurant,restaurant,4.2,89,152.0825031,-32.7780763,"1/118 Gan Gan Rd, Anna Bay NSW 2316, Australia"
57,Anna Bay,2316,Anna Bay Tavern,restaurant,4.1,167,152.0831721,-32.778148,"124 Gan Gan Rd, Anna Bay NSW 2316, Australia"
57,Anna Bay,2316,LJ's Cafe,restaurant,4.3,194,152.085403,-32.777888,"2/150 Gan Gan Rd, Anna Bay NSW 2316, Australia"
58,Annandale,2038,Bayleaf Annandale,restaurant,0,0,151.1714996,-33.8873663,"17-19 Parramatta Rd, Annandale NSW 2038, Australia"
58,Annandale,2038,Bar Asia (Annandale),restaurant,4.3,196,151.1716403,-33.88163540000001,"101 Booth St, Annandale NSW 2038, Australia"
58,Annandale,2038,Vinery Foods,restaurant,4,82,151.171146,-33.880803,"125 Johnston St, Annandale NSW 2038, Australia"
58,Annandale,2038,Surjit's Indian Restaurant,restaurant,4.2,266,151.1638992,-33.8880457,"215 Parramatta Rd, Annandale NSW 2038, Australia"
58,Annandale,2038,Sushi Bar Rashai,restaurant,4.5,111,151.1630156,-33.8881016,"241 Parramatta Rd, Annandale NSW 2038, Australia"
58,Annandale,2038,Fez & Co,restaurant,4.7,270,151.1750454,-33.8830865,"4 Booth St, Annandale NSW 2038, Australia"
58,Annandale,2038,Made In Italy Annandale,restaurant,4.2,128,151.1710389,-33.8811238,"115 Johnston St, Annandale NSW 2038, Australia"
58,Annandale,2038,Nelson's Nest,restaurant,4.8,113,151.171221,-33.887063,"C1/6 Nelson St, Annandale NSW 2038, Australia"
58,Annandale,2038,Fat Fish,restaurant,4.5,545,151.1709262,-33.8813238,"109 Johnston St, Annandale NSW 2038, Australia"
58,Annandale,2038,Phoenix Charcoal Chicken,restaurant,4.5,136,151.1720547,-33.8817585,"85 Booth St, Annandale NSW 2038, Australia"
58,Annandale,2038,Chook & Cooker,restaurant,4.6,32,151.1734029,-33.8824596,"12 Booth St, Annandale NSW 2038, Australia"
58,Annandale,2038,Bad Habits Annandale,restaurant,4.4,307,151.1701771,-33.8832557,"1/63 Johnston St, Annandale NSW 2038, Australia"
58,Annandale,2038,North Annandale Hotel,restaurant,4.2,267,151.1710724,-33.8817091,"105 Johnston St, Annandale NSW 2038, Australia"
58,Annandale,2038,INDIAN CURRY CLUB,restaurant,4.3,110,151.16695,-33.887682,"123 Parramatta Rd, Annandale NSW 2038, Australia"
58,Annandale,2038,Revolver Cafe,restaurant,4.4,604,151.1718056,-33.8758278,"291 Annandale St, Annandale NSW 2038, Australia"
58,Annandale,2038,The Drop Espresso & Juice Bar,restaurant,4.6,107,151.1733333,-33.8825,"14 Booth St, Annandale NSW 2038, Australia"
58,Annandale,2038,Black Toast Cafe,restaurant,4.4,373,151.1732828,-33.8821913,"43 Booth St, Annandale NSW 2038, Australia"
58,Annandale,2038,Crust Pizza Annandale,restaurant,3.9,117,151.1711376,-33.88148,"113A Booth St, Annandale NSW 2038, Australia"
58,Annandale,2038,The Victoria Hotel,restaurant,4.2,196,151.1671124,-33.8825918,"176A Young St, Annandale NSW 2038, Australia"
58,Annandale,2038,Brothers Kebabs and Burgers,restaurant,4.5,444,151.1622406,-33.8878903,"257 Parramatta Rd, Annandale NSW 2038, Australia"
58,Annandale,2038,Bar Sirocco Cafe,restaurant,4.4,99,151.1715272,-33.8818067,"62 Booth St, Annandale NSW 2038, Australia"
58,Annandale,2038,Stoneground Bakery,restaurant,4.5,104,151.1734002,-33.8822384,"1/39 Booth St, Annandale NSW 2038, Australia"
58,Annandale,2038,Cornersmith,restaurant,4.2,374,151.1724679,-33.8789986,"88 View St, Annandale NSW 2038, Australia"
58,Annandale,2038,Sahara Restaurant,restaurant,3.7,46,151.1684651,-33.8876237,"95 Parramatta Rd, Annandale NSW 2038, Australia"
58,Annandale,2038,Chargrill Charlie's Annandale,restaurant,3.9,335,151.1710745,-33.8809906,"119-121 Johnston St, Annandale NSW 2038, Australia"
58,Annandale,2038,Roberta's Pizzeria,restaurant,3.8,68,151.1647371,-33.88792,"183A Parramatta Rd, Annandale NSW 2038, Australia"
58,Annandale,2038,Cafe Claire,restaurant,4.3,196,151.1648902,-33.8877182,"Shop 3/2 Young St, Annandale NSW 2038, Australia"
58,Annandale,2038,Rechargin Cafe & Burger,restaurant,4.5,15,151.167548,-33.88751,"10 Johnston St, Annandale NSW 2038, Australia"
58,Annandale,2038,China hundred,restaurant,1,1,151.1651125,-33.8878737,"177 Parramatta Rd, Annandale NSW 2038, Australia"
58,Annandale,2038,Grand Dog Flavors,restaurant,0,0,151.1665362,-33.8875419,"139 Albion Ln, Annandale NSW 2038, Australia"
59,Annangrove,2156,Meze Me,restaurant,4.4,370,150.9318682,-33.6576384,"249 Annangrove Rd, Annangrove NSW 2156, Australia"
59,Annangrove,2156,Cafe Rialto Pizza Bar,restaurant,4.4,88,150.9562348,-33.671111,"169 Annangrove Rd, Annangrove NSW 2156, Australia"
59,Annangrove,2156,Kashi Indian Restaurant,restaurant,4.2,403,150.9393964,-33.6559773,"233 Annangrove Rd, Annangrove NSW 2156, Australia"
60,Appin,2560,Red Delicious & Co Cafe' Thai Restaurant,restaurant,4.9,47,150.7880582,-34.2007829,"1/74 Appin Rd, Appin NSW 2560, Australia"
60,Appin,2560,Southwest Barbecue,restaurant,4.6,100,150.7874008,-34.2000925,"1/79 Appin Rd, Appin NSW 2560, Australia"
60,Appin,2560,Long-Tail Thai,restaurant,4.4,41,150.7873842,-34.2000989,"2/79 Appin Rd, Appin NSW 2560, Australia"
60,Appin,2560,Appin Chinese Kitchen,restaurant,4,1,150.787186,-34.20066,"Shop 1/73 Appin Rd, Appin NSW 2560, Australia"
60,Appin,2560,Appin Homestay Bed & Breakfast,restaurant,4.9,26,150.7756625,-34.1969619,"120 Macquariedale Rd, Appin NSW 2560, Australia"
60,Appin,2560,Gather Coffee House.,restaurant,4.8,51,150.7873121,-34.2005585,"1/75 Appin Rd, Appin NSW 2560, Australia"
60,Appin,2560,Skippy Food Bar,restaurant,4.4,139,150.787966,-34.200657,"1/76 Appin Rd, Appin NSW 2560, Australia"
60,Appin,2560,Appin Indian Diner,restaurant,0,0,150.7873986,-34.20005829999999,"79 Appin Rd, Appin NSW 2560, Australia"
66,Arakoon,2431,Smoky cape cafe and spaghetti house,restaurant,4.7,46,153.0587391,-30.9064238,"1 Cockatoo Pl, Arakoon NSW 2431, Australia"
73,Ardlethan,2665,London Hotel-Motel,restaurant,4.3,59,146.8975647,-34.3577795,"12 Mirrool St, Ardlethan NSW 2665, Australia"
75,Argenton,2284,Argenton Hotel,restaurant,4.1,733,151.6294094,-32.9355997,"515 Lake Rd, Argenton NSW 2284, Australia"
75,Argenton,2284,Argy's Top Shop Takeaway,restaurant,4.6,136,151.6291189,-32.9352661,"436 Lake Rd, Argenton NSW 2284, Australia"
75,Argenton,2284,Club Macquarie,restaurant,4.3,186,151.6234578,-32.9413393,"458 Lake Rd, Argenton NSW 2284, Australia"
75,Argenton,2284,7-Eleven Argenton,restaurant,3.4,9,151.6307244,-32.9351973,"503 Lake Rd, Argenton NSW 2284, Australia"
79,Ariah Park,2665,Ariah Park,restaurant,4,1,147.2223235,-34.3476869,"3 Pitt St, Ariah Park NSW 2665, Australia"
83,Armidale,2350,Pearl Perch Takeaway,restaurant,4.2,60,151.6628695,-30.5116437,"102 Jessie St, Armidale NSW 2350, Australia"
83,Armidale,2350,Paper Tiger,restaurant,4.5,86,151.6665903,-30.5129384,"14 Moore St, Armidale NSW 2350, Australia"
83,Armidale,2350,Era Espresso,restaurant,4.3,85,151.6637514,-30.5129566,"230 Beardy St, Armidale NSW 2350, Australia"
83,Armidale,2350,Delicious Noodle,restaurant,4.1,44,151.6650079,-30.5136452,"108 Dangar St, Armidale NSW 2350, Australia"
83,Armidale,2350,1879 Bistro,restaurant,0,0,151.6570636,-30.5124989,"222 Rusden St, Armidale NSW 2350, Australia"
83,Armidale,2350,Grab 'N' Gobble Take Away (Armidale ),restaurant,4.3,13,151.6479968,-30.5149955,"156 Miller St, Armidale NSW 2350, Australia"
83,Armidale,2350,Ellys Coffee Lounge,restaurant,4.2,49,151.6637315,-30.5114618,"100 Jessie St, Armidale NSW 2350, Australia"
83,Armidale,2350,Domino's Pizza Armidale East,restaurant,4,65,151.6690483,-30.5144462,"Shop 6 & 7, 108 Beardy St, Armidale NSW 2350, Australia"
83,Armidale,2350,Armidale Golf Club (Clubhouse hours),restaurant,4.4,49,151.6374688,-30.510775,"Golf Links Rd, Armidale NSW 2350, Australia"
83,Armidale,2350,Subway,restaurant,4.1,73,151.6672368,-30.5175151,"4/146A Marsh St, Armidale NSW 2350, Australia"
83,Armidale,2350,Country Boys,restaurant,3.7,10,151.6682811,-30.5130548,"Shop No 13, Armidale NSW 2350, Australia"
83,Armidale,2350,Fresh @110,restaurant,4.6,40,151.6650266,-30.5140616,"110 Dangar St, Armidale NSW 2350, Australia"
83,Armidale,2350,Courthouse Coffee,restaurant,4.5,69,151.666698,-30.5137758,"160 Beardy St, Armidale NSW 2350, Australia"
83,Armidale,2350,St Kilda Hotel,restaurant,4.2,254,151.6687316,-30.5157718,"102-104 Rusden St, Armidale NSW 2350, Australia"
83,Armidale,2350,Seesaw Coffee,restaurant,4.6,121,151.6664188,-30.5154369,"Armidale NSW 2350, Australia"
83,Armidale,2350,Hungry Jack's Burgers Armidale,restaurant,3.8,247,151.6692773,-30.5121496,"115-117 Dumaresq St, Armidale NSW 2350, Australia"
83,Armidale,2350,R&H Curry House,restaurant,3.7,20,151.6655757,-30.5118817,"23/124 Dumaresq St, Armidale NSW 2350, Australia"
83,Armidale,2350,Armidale City Bowling Club,restaurant,4.2,241,151.6708154,-30.5135326,"92-96 Dumaresq St, Armidale NSW 2350, Australia"
83,Armidale,2350,ISPA Kebabs,restaurant,4.1,90,151.6657884,-30.5117794,"Shop/24 Dumaresq St, Armidale NSW 2350, Australia"
83,Armidale,2350,The Mill Bistro,restaurant,4,1,151.6651098,-30.5111804,"Dumaresq St, Armidale NSW 2350, Australia"
83,Armidale,2350,Red Rooster,restaurant,4.4,59,151.6673508,-30.5175819,"2/146 Marsh St, Armidale NSW 2350, Australia"
83,Armidale,2350,Railway Hotel,restaurant,4.4,244,151.6568935,-30.5124904,"222 Rusden St, Armidale NSW 2350, Australia"
83,Armidale,2350,Whitebull,restaurant,4.3,535,151.668958,-30.5146369,"117 Marsh St, Armidale NSW 2350, Australia"
83,Armidale,2350,The New England Hotel,restaurant,4.2,201,151.665432,-30.5134896,"196 Beardy St, Armidale NSW 2350, Australia"
83,Armidale,2350,Shuai Hu Chinese Restaurant,restaurant,4.1,29,151.650818,-30.504009,"4/10 Queen Elizabeth Dr, Armidale NSW 2350, Australia"
83,Armidale,2350,Taste Breeze - Indian Cuisine,restaurant,3.3,28,151.6509086,-30.5040399,"12 Queen Elizabeth Dr, Armidale NSW 2350, Australia"
83,Armidale,2350,Tattersalls Hotel Armidale,restaurant,4.5,138,151.6661969,-30.5137183,"174 Beardy St, Armidale NSW 2350, Australia"
83,Armidale,2350,The Alps Deer Park,restaurant,5,3,151.6688975,-30.4939322,"72 Glen Innes Rd, Armidale NSW 2350, Australia"
83,Armidale,2350,Wicklow Hotel,restaurant,4,216,151.6697455,-30.5124523,"87 Marsh St, Armidale NSW 2350, Australia"
83,Armidale,2350,Westside Espresso,restaurant,4.6,80,151.6506431,-30.5037734,"Harvey Norman Centre, 9 Queen Elizabeth Dr, Armidale NSW 2350, Australia"
83,Armidale,2350,Mandarin Restaurant,restaurant,4,70,151.6639917,-30.512687,"213 Beardy St, Armidale NSW 2350, Australia"
83,Armidale,2350,Cafe Patisserie,restaurant,4.8,114,151.6712788,-30.5164291,"80 Rusden St, Armidale NSW 2350, Australia"
83,Armidale,2350,The Grand Hotel,restaurant,4.2,143,151.6522222,-30.5108333,"251 Rusden St, Armidale NSW 2350, Australia"
83,Armidale,2350,Domino's Pizza Armidale (NSW),restaurant,4.1,120,151.6510507,-30.5041092,"shop 4/4/10 Queen Elizabeth Dr, Armidale NSW 2350, Australia"
83,Armidale,2350,Tattersalls Restaurant Armidale,restaurant,3,4,151.6661433,-30.5137992,"174 Beardy St, Armidale NSW 2350, Australia"
83,Armidale,2350,Powerhouse Hotel Armidale by Rydges,restaurant,4.4,275,151.6723319,-30.5062568,"31 Marsh St, Armidale NSW 2350, Australia"
83,Armidale,2350,The Curry House,restaurant,4.2,35,151.6656301,-30.5121415,"23/197 Beardy St, Armidale NSW 2350, Australia"
83,Armidale,2350,CAFFIENDS in the mall,restaurant,4.5,119,151.6656596,-30.5133834,"190 Beardy St, Armidale NSW 2350, Australia"
83,Armidale,2350,Bistro Grill,restaurant,3,1,151.6704281,-30.5137032,"92/96 Dumaresq St, Armidale NSW 2350, Australia"
83,Armidale,2350,East Armidale Store,restaurant,4.4,73,151.6758949,-30.5236921,"43 Mann St, Armidale NSW 2350, Australia"
83,Armidale,2350,The Coughing Gherkin,restaurant,4.3,112,151.6683737,-30.513885,"1/117 Beardy St, Armidale NSW 2350, Australia"
83,Armidale,2350,Azka Restaurant Wine & Tapas Bar,restaurant,4.3,59,151.6722222,-30.5061111,"31 Marsh St, Armidale NSW 2350, Australia"
83,Armidale,2350,Pho Plus,restaurant,5,12,151.668815,-30.512878,"90/96 Marsh St, Armidale NSW 2350, Australia"
83,Armidale,2350,Addys on Marsh,restaurant,4.2,43,151.6687312,-30.5146027,"2/110 Marsh St, Armidale NSW 2350, Australia"
83,Armidale,2350,Mun Hing Restaurant,restaurant,4.2,170,151.6634282,-30.512776,"236 Beardy St, Armidale NSW 2350, Australia"
83,Armidale,2350,An Indian Affair,restaurant,4,110,151.6682434,-30.5152263,"115 Rusden St, Armidale NSW 2350, Australia"
83,Armidale,2350,Manor Restaurant at Cotswold Gardens,restaurant,4.3,15,151.6715326,-30.5059924,"34 Marsh St, Armidale NSW 2350, Australia"
83,Armidale,2350,Luniva MoMo Cafe Restaurant,restaurant,4.7,18,151.6687194,-30.5145525,"Shop1/110 Marsh St, Armidale NSW 2350, Australia"
83,Armidale,2350,Lan Ting Japanese,restaurant,4.5,47,151.6507853,-30.5037429,"10 Queen Elizabeth Dr, West Armidale NSW 2350, Australia"
83,Armidale,2350,Armidale Pizza,restaurant,4.6,147,151.6681156,-30.5152545,"113 Rusden St, Armidale NSW 2350, Australia"
83,Armidale,2350,Goldfish Bowl Bakery,restaurant,4.5,433,151.6629222,-30.5141889,"3/160 Rusden St, Armidale NSW 2350, Australia"
83,Armidale,2350,Bua Thong,restaurant,4.1,68,151.6570729,-30.5164394,"201A Brown St, Armidale NSW 2350, Australia"
83,Armidale,2350,Ten Koo,restaurant,4.5,81,151.6659444,-30.5131806,"175 Beardy St, Armidale NSW 2350, Australia"
83,Armidale,2350,PJ Thai,restaurant,3.7,125,151.6681718,-30.515908,"130 Marsh St, Armidale NSW 2350, Australia"
83,Armidale,2350,Thai Home Restaurant,restaurant,4,66,151.6688682,-30.513884,"102 Marsh St, Armidale NSW 2350, Australia"
83,Armidale,2350,Wonder Chinese Restaurant,restaurant,4.1,79,151.665088,-30.514238,"111 Dangar St, Armidale NSW 2350, Australia"
83,Armidale,2350,Signor Vertelli,restaurant,5,12,151.6684362,-30.5145723,"Shop 5/110 Marsh St, Armidale NSW 2350, Australia"
83,Armidale,2350,Neville's Store,restaurant,4.5,253,151.6572222,-30.5163889,"201 Brown St, Armidale NSW 2350, Australia"
83,Armidale,2350,Indian Zaika,restaurant,4.3,63,151.6686965,-30.5146954,"110 Marsh St, West Armidale NSW 2350, Australia"
83,Armidale,2350,Bistro on Cinders,restaurant,4.5,47,151.6671384,-30.5140619,"14 Cinders Ln, Armidale NSW 2350, Australia"
85,Arncliffe,2205,Mongol Lounge,restaurant,4.3,55,151.1464661,-33.9368328,"23 Firth St, Arncliffe NSW 2205, Australia"
85,Arncliffe,2205,Indian Fresh Curry Restaurent,restaurant,3.8,79,151.1463847,-33.9373531,"30 Firth St, Arncliffe NSW 2205, Australia"
85,Arncliffe,2205,Bean 2 Taste,restaurant,4.4,52,151.147417,-33.933573,"19/13-15 Wollongong Rd, Arncliffe NSW 2205, Australia"
85,Arncliffe,2205,Rocksia Hotel,restaurant,4,928,151.1419077,-33.9437578,"299 Princes Hwy, Arncliffe NSW 2205, Australia"
85,Arncliffe,2205,Elzein Bakery,restaurant,4.2,47,151.1467993,-33.9368821,"Next to Arncliffe Station, 1A Firth St, Arncliffe NSW 2205, Australia"
85,Arncliffe,2205,Yang's Top Chef,restaurant,3.7,18,151.145117,-33.934687,"4 Kelsey St, Arncliffe NSW 2205, Australia"
85,Arncliffe,2205,Naji's Charcoal Chicken & Kebabs,restaurant,4.1,373,151.146524,-33.936702,"1/21 Firth St, Arncliffe NSW 2205, Australia"
85,Arncliffe,2205,Arncliffe Chickens,restaurant,4.7,79,151.1420029,-33.9367474,"102 Wollongong Rd, Arncliffe NSW 2205, Australia"
85,Arncliffe,2205,Burger World,restaurant,4.6,152,151.1423354,-33.9366363,"1/96 Wollongong Rd, Arncliffe NSW 2205, Australia"
85,Arncliffe,2205,Al's Fried Chickens,restaurant,4.3,55,151.1316373,-33.9418512,"239 Wollongong Rd, Arncliffe NSW 2205, Australia"
85,Arncliffe,2205,Big Joe's Pizza,restaurant,4.5,13,151.1450023,-33.934548,"12 Kelsey St, Arncliffe NSW 2205, Australia"
85,Arncliffe,2205,Little Spoon,restaurant,3.9,39,151.1495477,-33.9373488,"108 Princes Hwy, Arncliffe NSW 2205, Australia"
85,Arncliffe,2205,Thai Fire Wok,restaurant,3.3,104,151.1465264,-33.9368932,"23 Firth St, Arncliffe NSW 2205, Australia"
85,Arncliffe,2205,Cliff Cafe,restaurant,4.2,33,151.1464835,-33.9369232,"25 Firth St, Arncliffe NSW 2205, Australia"
85,Arncliffe,2205,Scotts Arncliffe,restaurant,4,1,151.1480177,-33.9363101,"Burrows St, Arncliffe NSW 2205, Australia"
85,Arncliffe,2205,Rita’s Bistro,restaurant,5,7,151.142077,-33.9364,"71B Wollongong Rd, Arncliffe NSW 2205, Australia"
85,Arncliffe,2205,Espresso Haus Co.,restaurant,4.5,113,151.1451309,-33.9348513,"51 Wollongong Rd, Arncliffe NSW 2205, Australia"
85,Arncliffe,2205,Two Barrels Bistro,restaurant,4,3,151.1480111,-33.9362535,"29 Burrows St, Arncliffe NSW 2205, Australia"
85,Arncliffe,2205,Chef's Kitchen,restaurant,3,1,151.1420657,-33.9363093,"71B Wollongong Rd, Arncliffe NSW 2205, Australia"
85,Arncliffe,2205,Cali Burgers and co,restaurant,0,0,151.1480111,-33.9362535,"29 Burrows St, Arncliffe NSW 2205, Australia"
85,Arncliffe,2205,Andy’s storeroom,restaurant,0,0,151.1449879,-33.9345432,"12 Kelsey St, Arncliffe NSW 2205, Australia"
85,Arncliffe,2205,Scots Club 3 Olives Bistro,restaurant,3.7,7,151.147995,-33.936269,"29 Burrows St, Arncliffe NSW 2205, Australia"
85,Arncliffe,2205,Thai Mali Hom by J&J,restaurant,5,3,151.1420947,-33.9363122,"71B Wollongong Rd, Arncliffe NSW 2205, Australia"
86,Arndell Park,2148,Indian Terrace Restaurant,restaurant,4.4,46,150.8890342,-33.7892825,"5/69 Holbeche Rd, Arndell Park NSW 2148, Australia"
86,Arndell Park,2148,Mnl Chinese Take Away,restaurant,3.9,40,150.889013,-33.789228,"6/69 Holbeche Rd, Arndell Park NSW 2148, Australia"
86,Arndell Park,2148,Food Heaven,restaurant,4.5,22,150.8890327,-33.7891774,"6a/69 Holbeche Rd, Arndell Park NSW 2148, Australia"
86,Arndell Park,2148,Cafe 26 Arndell Park,restaurant,4.5,49,150.881952,-33.7889021,"1/26 Holbeche Rd, Arndell Park NSW 2148, Australia"
86,Arndell Park,2148,Cafe Lavita,restaurant,4.4,13,150.8766725,-33.7882079,"U1/12 Holbeche Rd, Arndell Park NSW 2148, Australia"
86,Arndell Park,2148,Pure Desi,restaurant,4.7,110,150.875327,-33.788612,"1/6 McCormack St, Arndell Park NSW 2148, Australia"
86,Arndell Park,2148,Chooks N Stuff & Pizza,restaurant,3.6,14,150.8894238,-33.78907290000001,"3/69 Holbeche Rd, Arndell Park NSW 2148, Australia"
86,Arndell Park,2148,Subway,restaurant,3.4,71,150.8889912,-33.7894126,"Arndell Park Shopping Centre, Shop 2/69 Holbeche Rd, Arndell Park NSW 2148, Australia"
86,Arndell Park,2148,The Grange Buffet,restaurant,3.8,53,150.8972343,-33.7947413,"170 Reservoir Rd, Arndell Park NSW 2148, Australia"
86,Arndell Park,2148,Workers Sports Club,restaurant,4.1,610,150.8964058,-33.7942862,"170 Reservoir Rd, Arndell Park NSW 2148, Australia"
86,Arndell Park,2148,Travelodge Hotel Blacktown Sydney,restaurant,3.8,409,150.89669,-33.793763,"170 Reservoir Rd, Arndell Park NSW 2148, Australia"
86,Arndell Park,2148,Thai Eleven,restaurant,3.6,11,150.8890163,-33.789309,"69 Holbeche Rd, Arndell Park NSW 2148, Australia"
86,Arndell Park,2148,Sports Cafe,restaurant,4,3,150.8963048,-33.7943331,"170 Reservoir Rd, Arndell Park NSW 2148, Australia"
86,Arndell Park,2148,7-Eleven Arndell Park,restaurant,3.8,16,150.896872,-33.796661,"180 Reservoir Rd, Arndell Park NSW 2148, Australia"
87,Arrawarra,2456,Flamingos Darlington Beach Holiday Park,restaurant,4,41,153.188009,-30.048923,"2564 Solitary Islands Way, Arrawarra NSW 2456, Australia"
89,Artarmon,2064,Rooster and Grill,restaurant,4.9,56,151.184796,-33.809284,"78 Hampden Rd, Artarmon NSW 2064, Australia"
89,Artarmon,2064,Artarmon Super Sandwich,restaurant,4,9,151.191305,-33.8158773,"41 Herbert St, Artarmon NSW 2064, Australia"
89,Artarmon,2064,Artarmon Bar & Grill,restaurant,4,5,151.1808493,-33.8138046,"12/6-8 McLachlan Ave, Artarmon NSW 2064, Australia"
89,Artarmon,2064,Middle Eastern restaurant,restaurant,0,0,151.1801771,-33.8156056,"46/96 Hotham Parade, Artarmon NSW 2064, Australia"
89,Artarmon,2064,Food at SbS,restaurant,3.6,71,151.1900961,-33.8164262,"14 Herbert St, Artarmon NSW 2064, Australia"
89,Artarmon,2064,Cafe Frangipanis,restaurant,5,3,151.1799756,-33.816663,"87 Whiting St, Artarmon NSW 2064, Australia"
89,Artarmon,2064,Freeway Hotel,restaurant,3.9,233,151.185959,-33.814202,"115 Reserve Rd, Artarmon NSW 2064, Australia"
89,Artarmon,2064,Artarmon Deli,restaurant,3.6,26,151.1842433,-33.8171347,"6 Carlotta St, Artarmon NSW 2064, Australia"
89,Artarmon,2064,L'Annam,restaurant,3.8,122,151.1851925,-33.8093261,"68 Hampden Rd, Artarmon NSW 2064, Australia"
89,Artarmon,2064,Subway,restaurant,3.7,42,151.18477,-33.8090821,"88 Hampden Rd, Artarmon NSW 2064, Australia"
89,Artarmon,2064,KFC Artarmon,restaurant,3.7,990,151.1758934,-33.8108939,"436 Pacific Hwy, Artarmon NSW 2064, Australia"
89,Artarmon,2064,Maiya Indian Curry House,restaurant,3.1,94,151.1835748,-33.8081872,"126 Hampden Rd, Artarmon NSW 2064, Australia"
89,Artarmon,2064,BoolsBites,restaurant,5,1,151.1867049,-33.8123932,"2 Barton Rd, Artarmon NSW 2064, Australia"
89,Artarmon,2064,Holy Basil Thai Takeaway Restaurant,restaurant,4.5,123,151.1803307,-33.8171596,"349 Pacific Hwy, Artarmon NSW 2064, Australia"
89,Artarmon,2064,Taipei Chef Restaurant,restaurant,4.2,231,151.1839765,-33.8089209,"1A Broughton Rd, Artarmon NSW 2064, Australia"
89,Artarmon,2064,Ramen Genki,restaurant,4.2,390,151.1850147,-33.8081029,"6 Wilkes Ave, Artarmon NSW 2064, Australia"
89,Artarmon,2064,The Thai Artarmon,restaurant,4.1,97,151.183433,-33.8079945,"5/130 Hampden Rd, Artarmon NSW 2064, Australia"
89,Artarmon,2064,Haru Japanese Restaurant,restaurant,4.3,136,151.18442,-33.808922,"92 Hampden Rd, Artarmon NSW 2064, Australia"
89,Artarmon,2064,Sushi Taro,restaurant,4.7,64,151.184889,-33.8081995,"Shop/10 Wilkes Ave, Artarmon NSW 2064, Australia"
89,Artarmon,2064,The Wilkes,restaurant,4.5,155,151.1847556,-33.8081338,"7 Wilkes Ave, Artarmon NSW 2064, Australia"
89,Artarmon,2064,Artarmon Seafood,restaurant,4.3,68,151.1846588,-33.8089713,"90 Hampden Rd, Artarmon NSW 2064, Australia"
89,Artarmon,2064,Brickworks Cafe,restaurant,4.6,92,151.183151,-33.81613000000001,"2/53 Dickson Ave, Artarmon NSW 2064, Australia"
89,Artarmon,2064,Pizza Luna,restaurant,4.3,125,151.1856865,-33.809572,"4/44 Hampden Rd, Artarmon NSW 2064, Australia"
89,Artarmon,2064,Everyday Canteen,restaurant,4.7,242,151.185239,-33.807798,"11 Elizabeth St, Artarmon NSW 2064, Australia"
89,Artarmon,2064,Chooks,restaurant,4.5,92,151.1839392,-33.8085408,"108 Hampden Rd, Artarmon NSW 2064, Australia"
89,Artarmon,2064,charc specialty meats & coffee ARTARMON,restaurant,4.6,56,151.1909934,-33.8147622,"18-20 Cleg St, Artarmon NSW 2064, Australia"
89,Artarmon,2064,Doughboy Pizza Artarmon,restaurant,4.1,115,151.1841649,-33.8090859,"3/2A Broughton Rd, Artarmon NSW 2064, Australia"
89,Artarmon,2064,Flame and Oven,restaurant,4.5,67,151.184796,-33.809284,"78 Hampden Rd, Artarmon NSW 2064, Australia"
89,Artarmon,2064,Salvage Specialty Coffee,restaurant,4.4,424,151.1848228,-33.808107,"5 Wilkes Ave, Artarmon NSW 2064, Australia"
89,Artarmon,2064,Hampden 86,restaurant,4.6,164,151.1847406,-33.8089954,"86 Hampden Rd, Artarmon NSW 2064, Australia"
89,Artarmon,2064,Woodpecker Coffee Co,restaurant,4.4,69,151.1855127,-33.8151164,"1/17 Dickson Ave, Artarmon NSW 2064, Australia"
89,Artarmon,2064,Little Thai Place,restaurant,3.3,79,151.184758,-33.8081559,"9 Wilkes Ave, Artarmon NSW 2064, Australia"
89,Artarmon,2064,BRGR,restaurant,4.2,108,151.18477,-33.8090821,"84 Hampden Rd, Artarmon NSW 2064, Australia"
89,Artarmon,2064,Feed Ya Face,restaurant,3.8,21,151.184109,-33.8160435,"6/44 Dickson Ave, Artarmon NSW 2064, Australia"
89,Artarmon,2064,Wild Bean Cafe,restaurant,5,1,151.1756906,-33.8111517,"422 Pacific Hwy, Artarmon NSW 2064, Australia"
89,Artarmon,2064,Artarmon Sushi Bar,restaurant,5,1,151.1841151,-33.8086216,"102 Hampden Rd, Artarmon NSW 2064, Australia"
92,Ashbury,2193,Oceanmaster Seafood,restaurant,4.3,75,151.1199153,-33.9009005,"51 King St, Ashbury NSW 2193, Australia"
92,Ashbury,2193,First Street Pantry,restaurant,4.8,121,151.1190086,-33.9029693,"66 First St, Ashbury NSW 2193, Australia"
92,Ashbury,2193,3 Tomatoes,restaurant,4.6,112,151.1248512,-33.895959,"121 Holden St, Ashbury NSW 2193, Australia"
96,Ashcroft,2168,Mixed Business Ashcroft,restaurant,0,0,150.8988759,-33.9152805,"Sinclair Rd, Ashcroft NSW 2168, Australia"
97,Ashfield,2131,Yummy Nest Ashfield Restaurant.,restaurant,4.4,20,151.125285,-33.8881237,"7 Hercules St, Ashfield NSW 2131, Australia"
97,Ashfield,2131,New Shanghai Ashfield,restaurant,4.2,505,151.1244617,-33.8882926,"273 Liverpool Rd, Ashfield NSW 2131, Australia"
97,Ashfield,2131,Shinsen,restaurant,4.3,236,151.1262656,-33.8895687,"215 Liverpool Rd, Ashfield NSW 2131, Australia"
97,Ashfield,2131,ACE - Vietnamese Rolls and Bowls,restaurant,4.5,113,151.1253233,-33.8892823,"222 Liverpool Rd, Ashfield NSW 2131, Australia"
97,Ashfield,2131,Manmaruya,restaurant,4,406,151.1261917,-33.8895306,"217 Liverpool Rd, Ashfield NSW 2131, Australia"
97,Ashfield,2131,Eaton Chinese Restaurant,restaurant,4.3,251,151.1232262,-33.8878185,"313 Liverpool Rd, Ashfield NSW 2131, Australia"
97,Ashfield,2131,Taste of Shanghai Ashfield,restaurant,3.9,478,151.1239372,-33.8883441,"264 Liverpool Rd, Ashfield NSW 2131, Australia"
97,Ashfield,2131,New Shanghai Night,restaurant,4.2,648,151.1243979,-33.888348,"267c Liverpool Rd, Ashfield NSW 2131, Australia"
97,Ashfield,2131,Sto Lat,restaurant,4.6,146,151.126599,-33.8907092,"73-75 Norton St, Ashfield NSW 2131, Australia"
97,Ashfield,2131,Ngoodle Restaurant,restaurant,4.9,36,151.1250961,-33.8891876,"234 Liverpool Rd, Ashfield NSW 2131, Australia"
97,Ashfield,2131,Metro One Kebab,restaurant,4.4,631,151.1233954,-33.8878707,"309 Liverpool Rd, Ashfield NSW 2131, Australia"
97,Ashfield,2131,Shanghai Night,restaurant,3.9,409,151.1243007,-33.8882837,"275 Liverpool Rd, Ashfield NSW 2131, Australia"
97,Ashfield,2131,Kreta Ayer,restaurant,4,212,151.1225633,-33.8875701,"339 Liverpool Rd, Ashfield NSW 2131, Australia"
97,Ashfield,2131,Silkroad Uyghur Restaurant,restaurant,4.5,111,151.126566,-33.8899328,"190 Liverpool Rd, Ashfield NSW 2131, Australia"
97,Ashfield,2131,Old Chinese Dumplings Restaurant,restaurant,4.6,49,151.1221988,-33.8873706,"355 Liverpool Rd, Ashfield NSW 2131, Australia"
97,Ashfield,2131,Thai Number One,restaurant,3.9,169,151.1255767,-33.8869471,"12 Charlotte St, Ashfield NSW 2131, Australia"
97,Ashfield,2131,Healthy Ocean Food,restaurant,4.6,70,151.125312,-33.888075,"5 Hercules St, Ashfield NSW 2131, Australia"
97,Ashfield,2131,Beijing Impression Ashfield,restaurant,3.6,269,151.1251674,-33.8882396,"11-13 Hercules St, Ashfield NSW 2131, Australia"
97,Ashfield,2131,Xin Ping BBQ,restaurant,4.5,31,151.1256933,-33.8882383,"10 Hercules St, Ashfield NSW 2131, Australia"
97,Ashfield,2131,Daijobu yakiniku,restaurant,4.5,110,151.1240337,-33.88941150000001,"A/260 Liverpool Rd, Ashfield NSW 2131, Australia"
97,Ashfield,2131,Namaste Restaurant and Function,restaurant,4.2,229,151.124869,-33.8881074,"1/11-13 Hercules St, Ashfield NSW 2131, Australia"
97,Ashfield,2131,Excelsior Jones,restaurant,4.3,570,151.1270774,-33.9000548,"139A Queen St, Ashfield NSW 2131, Australia"
97,Ashfield,2131,The Garden,restaurant,3.8,211,151.1305999,-33.8895826,"Wests Ashfield Leagues Club, 115 Liverpool Rd, Ashfield NSW 2131, Australia"
97,Ashfield,2131,Da Vatti,restaurant,3.9,347,151.1256726,-33.8897784,"4/206-208 Liverpool Rd, Ashfield NSW 2131, Australia"
97,Ashfield,2131,SIM Kebab House,restaurant,4.2,274,151.128028,-33.890335,"160 Liverpool Rd, Ashfield NSW 2131, Australia"
97,Ashfield,2131,An Nam Vietnamese Streetfood,restaurant,4.7,20,151.1221988,-33.8873706,"2/355 Liverpool Rd, Ashfield NSW 2131, Australia"
97,Ashfield,2131,Shanghai Dumpling,restaurant,4.1,66,151.1226834,-33.8875358,"1/337 Liverpool Rd, Ashfield NSW 2131, Australia"
97,Ashfield,2131,Charcorama Charcoal & Grill,restaurant,4.8,12,151.1248815,-33.8886733,"27 Hercules St, Ashfield NSW 2131, Australia"
97,Ashfield,2131,BUFFET 88,restaurant,3.9,167,151.1187713,-33.888763,"374 Liverpool Rd, Ashfield NSW 2131, Australia"
97,Ashfield,2131,Ikura Kaiten Sushi,restaurant,4.4,12,151.1241859,-33.889794,"Ashfield NSW 2131, Australia"
97,Ashfield,2131,Kujira,restaurant,4.5,95,151.1236831,-33.8879923,"297 Liverpool Rd, Ashfield NSW 2131, Australia"
97,Ashfield,2131,The Restaurant Chinese Skewers BBQ,restaurant,3.6,116,151.1265916,-33.8895986,"207 Liverpool Rd, Ashfield NSW 2131, Australia"
97,Ashfield,2131,1919 Lanzhou Beef Noodle,restaurant,4.6,26,151.1254443,-33.8890569,"243, A22, Ashfield NSW 2131, Australia"
97,Ashfield,2131,Cute Panda Malatang & Tastebox,restaurant,4.2,26,151.1258771,-33.8880913,"2 Hercules St, Ashfield NSW 2131, Australia"
97,Ashfield,2131,The Prawn Pot (香虾锅）,restaurant,3.9,44,151.1249524,-33.8884878,"23 Hercules St, Ashfield NSW 2131, Australia"
97,Ashfield,2131,Yummy Noodle & BBQ Ashfield 桂林米粉,restaurant,4.1,100,151.1240949,-33.8880534,"287 Liverpool Rd, Ashfield NSW 2131, Australia"
97,Ashfield,2131,Oriental Recipes Pty Ltd,restaurant,3.8,12,151.1233113,-33.8878217,"311 Hume Hwy, Ashfield NSW 2131, Australia"
97,Ashfield,2131,Lan Xiang Hotpot 攬香老火鍋,restaurant,4.2,41,151.1240465,-33.8881466,"283 Liverpool Rd, Ashfield NSW 2131, Australia"
97,Ashfield,2131,The Urban Artisans,restaurant,4.1,443,151.1241649,-33.8885403,"Ashfield Mall, Shop F1/260A Liverpool Rd, Ashfield NSW 2131, Australia"
97,Ashfield,2131,Crocodile Farm Hotel,restaurant,3.7,148,151.1239982,-33.8884385,"262 Liverpool Rd, Ashfield NSW 2131, Australia"
97,Ashfield,2131,Choo Choo Train,restaurant,4,12,151.1242504,-33.8882559,"277A Liverpool Rd, Ashfield NSW 2131, Australia"
97,Ashfield,2131,Golden Times Seafood Restaurant,restaurant,3.2,115,151.1304321,-33.8895187,"115 Liverpool Rd, Ashfield NSW 2131, Australia"
97,Ashfield,2131,chinese restaurant ci qi,restaurant,3.5,4,151.1250378,-33.8880939,"11 Hercules St, Ashfield NSW 2131, Australia"
97,Ashfield,2131,Legend Noodle House,restaurant,3.7,51,151.1254792,-33.8891009,"241 Liverpool Rd, Ashfield NSW 2131, Australia"
97,Ashfield,2131,Kow Thai Thai,restaurant,3.7,15,151.1245332,-33.889826,"260A Liverpool Rd, Ashfield NSW 2131, Australia"
97,Ashfield,2131,Sushi House,restaurant,3.4,8,151.1242903,-33.8895943,"260A Liverpool Rd, Ashfield NSW 2131, Australia"
97,Ashfield,2131,Saigon Summer Ashfield,restaurant,1,1,151.1239513,-33.8887501,"Kiosk K10, Level 4 Food Court , Ashfield Mall, 260A Liverpool Rd, Ashfield NSW 2131, Australia"
97,Ashfield,2131,Hungry Jack's Burgers Ashfield,restaurant,3.8,1012,151.1276315,-33.8749382,"542-554 Parramatta Rd, Ashfield NSW 2131, Australia"
97,Ashfield,2131,Ashfield Hotel,restaurant,3.8,288,151.1260348,-33.8897571,"204 Liverpool Rd, Ashfield NSW 2131, Australia"
97,Ashfield,2131,Seabay Kitchen西安名吃,restaurant,4.3,7,151.1253804,-33.8886296,"30 Hercules St, Ashfield NSW 2131, Australia"
97,Ashfield,2131,New Shanghai Workshop (retail),restaurant,1,1,151.1238804,-33.8882109,"268 Liverpool Rd, Ashfield NSW 2131, Australia"
97,Ashfield,2131,Lusciouss Bistro,restaurant,0,0,151.1260261,-33.8898832,"202-204 Liverpool Rd, Ashfield NSW 2131, Australia"
100,Ashmont,2650,Babira super market,restaurant,4.9,13,147.3355084,-35.1263908,"20 Tarakan Ave, Ashmont NSW 2650, Australia"
100,Ashmont,2650,Silvalite Fuel Stop,restaurant,4.5,190,147.321232,-35.1223059,"210 Ashmont Ave, Ashmont NSW 2650, Australia"
101,Ashtonfield,2323,The Angel's Inn,restaurant,3.5,2,151.59676,-32.7640355,"Cnr New England Highway & Chisholm Road, Ashtonfield NSW 2323, Australia"
101,Ashtonfield,2323,CHEFORCE - RESTAURANT TO YOU - Hospitality Labour Hire - Catering,restaurant,0,0,151.601802,-32.775287,"45 Pacific Cres, Ashtonfield NSW 2323, Australia"
102,Asquith,2077,Khana Khazana,restaurant,4.4,109,151.1079426,-33.688081,"385A Pacific Hwy, Asquith NSW 2077, Australia"
102,Asquith,2077,Tandoori Nite Indian Restaurant Asquith,restaurant,4.4,61,151.1071989,-33.68873550000001,"357 Pacific Hwy, Asquith NSW 2077, Australia"
102,Asquith,2077,Sushimee,restaurant,4.7,54,151.1082112,-33.687608,"Japanese restaurant, Shop2, 399-407 Pacific Hwy, Asquith NSW 2077, Australia"
102,Asquith,2077,Danni's Pizza,restaurant,4.2,46,151.1081977,-33.6875243,"99/407 Pacific Hwy, Asquith NSW 2077, Australia"
102,Asquith,2077,Burger Bites,restaurant,4,23,151.1080004,-33.6880154,"1/387 Pacific Hwy, Asquith NSW 2077, Australia"
102,Asquith,2077,Savvy Coffee,restaurant,4.2,107,151.1083456,-33.6875446,"399 Pacific Hwy, Asquith NSW 2077, Australia"
102,Asquith,2077,C-Cubed cafe,restaurant,3.9,66,151.1093819,-33.6882613,"Asquith NSW 2077, Australia"
102,Asquith,2077,Salisbury Lunch Box,restaurant,4.6,9,151.1109969,-33.6954883,"14/31/37 Salisbury Rd, Asquith NSW 2077, Australia"
102,Asquith,2077,KFC Asquith,restaurant,3.2,614,151.108504,-33.687114,"407A Pacific Hwy, Asquith NSW 2077, Australia"
105,Auburn,2144,La Mamma Africa,restaurant,5,52,151.0327508,-33.8508777,"27 Auburn Rd, Auburn NSW 2144, Australia"
105,Auburn,2144,Jasmin1 Lebanese Restaurant Auburn,restaurant,4.4,3506,151.0335917,-33.8509278,"22 Civic Rd, Auburn NSW 2144, Australia"
105,Auburn,2144,New Star Kebab Family Restaurant,restaurant,4.3,2966,151.0329044,-33.8505408,"15 Auburn Rd, Auburn NSW 2144, Australia"
105,Auburn,2144,Peranakan Place Nonya Cuisine,restaurant,4.6,203,151.0394439,-33.843071,"139 Parramatta Rd, Auburn NSW 2144, Australia"
105,Auburn,2144,Herat Restaurant,restaurant,4.9,13,151.0313288,-33.8507653,"Auburn Business Center, shop 13 level 1/1- 5 Harrow Rd, Auburn NSW 2144, Australia"
105,Auburn,2144,Khaybar,restaurant,4,351,151.0325751,-33.8533675,"64 Auburn Rd, Auburn NSW 2144, Australia"
105,Auburn,2144,Zedan Bakery,restaurant,4.9,46,151.0340993,-33.8495362,"Shop 3/53-55 Rawson St, Auburn NSW 2144, Australia"
105,Auburn,2144,Salam Cafe Restaurant East African cuisine,restaurant,4.7,199,151.0314554,-33.8524109,"4/6-10 Harrow Rd, Auburn NSW 2144, Australia"
105,Auburn,2144,Cook & Co.,restaurant,4.4,338,151.0327922,-33.8534488,"Shop 3/66 Auburn Rd, Auburn NSW 2144, Australia"
105,Auburn,2144,Auburn Kebab House,restaurant,4.5,370,151.0335737,-33.8491961,"77 Rawson St, Auburn NSW 2144, Australia"
105,Auburn,2144,Thai Garden Restaurant,restaurant,4.3,362,151.0399475,-33.843399,"129 Parramatta Rd, Auburn NSW 2144, Australia"
105,Auburn,2144,Tarim Uyghur Handmade Noodles,restaurant,4.5,351,151.032876,-33.848492,"105 Rawson St, Auburn NSW 2144, Australia"
105,Auburn,2144,Student Biryani Auburn,restaurant,3.9,3217,151.032751,-33.852529,"42 Auburn Rd, Auburn NSW 2144, Australia"
105,Auburn,2144,Peshawar Restaurant,restaurant,4,520,151.0350475,-33.8496567,"11/45 Rawson St, Auburn NSW 2144, Australia"
105,Auburn,2144,Xcel Roll,restaurant,4.9,63,151.0349578,-33.8397712,"191 PARRAMATTA RD, The Bell Tower (enter via, Adderley St W, Auburn NSW 2144, Australia"
105,Auburn,2144,Jamals Falafel & BJ's Burgers,restaurant,4.8,112,151.0321189,-33.8551487,"88 Auburn Rd, Auburn NSW 2144, Australia"
105,Auburn,2144,Al Khalej Restaurant,restaurant,4.2,93,151.0322412,-33.852512,"65 Auburn Rd, Auburn NSW 2144, Australia"
105,Auburn,2144,Manuella Restaurant,restaurant,4.2,64,151.0308418,-33.8497183,"Auburn Central shopP8, Crn Park Road, 57 Queen St, Auburn NSW 2144, Australia"
105,Auburn,2144,Chef Binas's Kitchen,restaurant,4.4,60,151.0311388,-33.8539976,"9C Beatrice St, Auburn NSW 2144, Australia"
105,Auburn,2144,Darband Restaurant,restaurant,3.8,482,151.035,-33.8497222,"Unit 9/45 Rawson St, Auburn NSW 2144, Australia"
105,Auburn,2144,Dougies Grill,restaurant,4.2,259,151.0321889,-33.8537855,"107 Auburn Rd, Auburn NSW 2144, Australia"
105,Auburn,2144,Golden Tower Malatang,restaurant,4.3,121,151.0328642,-33.8499268,"84/86 S Parade, Auburn NSW 2144, Australia"
105,Auburn,2144,Chitwan Taas and Momo House,restaurant,4.5,83,151.032683,-33.8514683,"26/27, 41 Auburn Rd, Auburn NSW 2144, Australia"
105,Auburn,2144,Ali Baba Charcoal Chicken,restaurant,3.9,142,151.0330586,-33.8515151,"2 Civic Rd, Auburn NSW 2144, Australia"
105,Auburn,2144,Kismet Cafe,restaurant,4.5,254,151.0330467,-33.8513871,"20 Auburn Rd, Auburn NSW 2144, Australia"
105,Auburn,2144,M Brothers Cafe Restaurant,restaurant,4.3,320,151.032877,-33.850318,"7 Auburn Rd, Auburn NSW 2144, Australia"
105,Auburn,2144,Pak-Afghan Restaurant,restaurant,3.9,142,151.0325121,-33.8525035,"63 Auburn Rd, Auburn NSW 2144, Australia"
105,Auburn,2144,Mina Bakery,restaurant,4.3,501,151.0321177,-33.8492073,"142 S Parade, Auburn NSW 2144, Australia"
105,Auburn,2144,"BK’s Auburn Kebab , Burger & Chicken",restaurant,4.6,20,151.0165012,-33.8755689,"344 Chisholm Rd, Auburn NSW 2144, Australia"
105,Auburn,2144,Sahan Mezopotamian Street Food,restaurant,4.3,76,151.0327006,-33.8511153,"39 Auburn Rd, Auburn NSW 2144, Australia"
105,Auburn,2144,Cafe Bodrum,restaurant,4.2,67,151.0320787,-33.8519188,"2/1 Mary St, Auburn NSW 2144, Australia"
105,Auburn,2144,Fifty Eight,restaurant,4,81,151.0327,-33.852959,"58 Auburn Rd, Auburn NSW 2144, Australia"
105,Auburn,2144,Morning Owl,restaurant,4.6,322,151.0167907,-33.8786964,"16/17 George Young St, Auburn NSW 2144, Australia"
105,Auburn,2144,Bar.B.Q. Tonight,restaurant,3.8,326,151.0331091,-33.8514388,"22A Auburn Rd, Auburn NSW 2144, Australia"
105,Auburn,2144,Biggy Burger,restaurant,3.9,123,151.0333322,-33.8500861,"1/2 Auburn Rd, Auburn NSW 2144, Australia"
105,Auburn,2144,Shalimaar Authentic Pakistani,restaurant,4,10,151.0319012,-33.854098,"121 Auburn Rd, Auburn NSW 2144, Australia"
105,Auburn,2144,Sambandha Restaurant,restaurant,3.6,416,151.0317153,-33.8500105,"Next to Auburn Post Office Auburn Central, Shop P17, Level G2/57-59 Queen St, Auburn NSW 2144, Australia"
105,Auburn,2144,Himalayan Fusion Cafe,restaurant,3.6,343,151.033643,-33.849242,"73 Rawson St, Auburn NSW 2144, Australia"
105,Auburn,2144,BIG BITE RESTAURANT,restaurant,4.1,121,151.0324664,-33.8527494,"73 Auburn Rd, Auburn NSW 2144, Australia"
105,Auburn,2144,Salsaal Afghan Restaurant,restaurant,4.7,3,151.0313281,-33.850768,"13/1-5 Harrow Rd, Auburn NSW 2360, Australia"
105,Auburn,2144,Sibel’s Cafe,restaurant,4.5,15,151.0334043,-33.8521296,"35 Queen St, Auburn NSW 2144, Australia"
105,Auburn,2144,Afghan kitchen,restaurant,4.3,18,151.0319012,-33.854098,"121 Auburn Rd, Auburn NSW 2144, Australia"
105,Auburn,2144,Chatpatta Corner,restaurant,4.5,19,151.0319012,-33.854098,"121 Auburn Rd, Auburn NSW 2144, Australia"
105,Auburn,2144,面道 CHINESE CUISINE,restaurant,3.9,50,151.0312357,-33.8502109,"Shop14,62/72 Queen St, Auburn NSW 2144, Australia"
105,Auburn,2144,Universal Burger Co,restaurant,3.8,278,151.0437781,-33.8469886,"1a/100 Parramatta Rd, Auburn NSW 2144, Australia"
105,Auburn,2144,Biryani and Kebabs,restaurant,4.6,22,151.032467,-33.851887,"45 Auburn Rd, Auburn NSW 2144, Australia"
105,Auburn,2144,Ciz Biz Mangal,restaurant,4.2,22,151.0314981,-33.8522095,"6 Harrow Rd, Auburn NSW 2144, Australia"
105,Auburn,2144,Rosnay Golf Club Bistro,restaurant,5,7,151.0175907,-33.864445,"3-5 Weymouth Ave, Auburn NSW 2144, Australia"
105,Auburn,2144,ABC Biryani and Karahi,restaurant,4.4,16,151.0350626,-33.8495816,"45 Rawson St, Auburn NSW 2144, Australia"
105,Auburn,2144,Jasmine Restaurant,restaurant,4.3,15,151.0335736,-33.8509184,"2144/18 Civic Rd, Auburn NSW 2144, Australia"
105,Auburn,2144,Coffee House Auburn,restaurant,3.6,119,151.0330668,-33.849342,"Shop 2/ Auburn Railway Station,, Rawson St, Auburn NSW 2144, Australia"
105,Auburn,2144,Subway® Restaurant,restaurant,4.1,18,151.028376,-33.838013,"G10/265 Parramatta Rd, Auburn NSW 2144, Australia"
105,Auburn,2144,Oporto Auburn Redyard Drive Thru,restaurant,3.9,418,151.0457392,-33.8471945,"1/100 Parramatta Rd, Auburn NSW 2144, Australia"
105,Auburn,2144,Queen Street Cafe.,restaurant,3.9,16,151.0333992,-33.8521405,"31-35 Queen St, Auburn NSW 2144, Australia"
105,Auburn,2144,Merhaba,restaurant,4.5,2,151.0328773,-33.8503182,"7 Auburn Rd, Auburn NSW 2144, Australia"
105,Auburn,2144,Saino Nepalese Cuisine,restaurant,3.4,215,151.0337875,-33.8493557,"67 Rawson St, Auburn NSW 2144, Australia"
105,Auburn,2144,Krispy Kreme Auburn,restaurant,4.2,1454,151.0411938,-33.845048,"Parramatta &, 116-124 St Hilliers Rd, Auburn NSW 2144, Australia"
107,Austinmer,2515,Austi Beach Cafe,restaurant,4.3,384,150.9342499,-34.3066292,"104 Lawrence Hargrave Dr, Austinmer NSW 2515, Australia"
107,Austinmer,2515,Shells Diner,restaurant,3.8,122,150.934171,-34.3067254,"106 Lawrence Hargrave Dr, Austinmer NSW 2515, Australia"
107,Austinmer,2515,Austinmer Gardens B&B,restaurant,5,5,150.9367205,-34.3029072,"4 Boyce Ave, Austinmer NSW 2515, Australia"
108,Austral,2179,Amicis Pizzeria Ristorante,restaurant,4.3,119,150.8125594,-33.9327503,"249 Edmondson Ave, Austral NSW 2179, Australia"
108,Austral,2179,Austral Bowling Club,restaurant,4.2,276,150.811839,-33.938222,"Edmondson Ave, Austral NSW 2179, Australia"
108,Austral,2179,Mezza Roma Restaurant,restaurant,4.8,62,150.814562,-33.918996,"Shop 1/394 Fifteenth Ave, Austral NSW 2179, Australia"
108,Austral,2179,Lucky Twins Chinese Restaurant,restaurant,4.5,51,150.8124656,-33.9326299,"13/249 Edmondson Ave, Austral NSW 2179, Australia"
108,Austral,2179,Thai Hoxton,restaurant,4.1,48,150.814493,-33.919343,"Shop 5/394 Edmondson Ave, Austral NSW 2179, Australia"
108,Austral,2179,Crust Pizza Austral,restaurant,4,40,150.811833,-33.932899,"Shop 4, 242-246 Edmondson Ave, cnr Tenth Ave, Austral NSW 2179, Australia"
108,Austral,2179,Sweet and Savoury Cafe,restaurant,4.4,66,150.8118812,-33.9327741,"242 Edmondson Ave, Austral NSW 2179, Australia"
108,Austral,2179,The Dolphin Takeaway,restaurant,4.5,61,150.8145208,-33.9196434,"Edmondson Ave, Austral NSW 2179, Australia"
108,Austral,2179,Hotties Original,restaurant,4.2,86,150.8146028,-33.9192694,"3/394 Edmondson Ave, Austral NSW 2179, Australia"
108,Austral,2179,Austral Burger Grill and Coffee,restaurant,3.7,7,150.8127375,-33.9325399,"shop 12/245 Edmondson Ave, Austral NSW 2179, Australia"
111,Avalon Beach,2107,Cafe Soto,restaurant,1,1,151.3336204,-33.6218917,"2/1 Careel Head Rd, Avalon Beach NSW 2107, Australia"
111,Avalon Beach,2107,Bistro Boulevard,restaurant,4.7,124,151.328096,-33.635733,"40 Avalon Parade, Avalon Beach NSW 2107, Australia"
111,Avalon Beach,2107,Pizzico Italiano,restaurant,4.6,78,151.329297,-33.636836,"2 Simmonds La, Avalon Beach NSW 2107, Australia"
111,Avalon Beach,2107,Made In Turin,restaurant,4.9,109,151.328213,-33.6377439,"1/17-19 Old Barrenjoey Rd, Avalon Beach NSW 2107, Australia"
111,Avalon Beach,2107,Sunset Diner,restaurant,4.8,143,151.328822,-33.6366518,"41 Old Barrenjoey Rd, Avalon Beach NSW 2017, Australia"
111,Avalon Beach,2107,Alfonso's Cafe,restaurant,4.9,41,151.3293586,-33.6285467,"43 Elvina Ave, Avalon Beach NSW 2107, Australia"
111,Avalon Beach,2107,OUZO,restaurant,4.7,76,151.316944,-33.6294388,"shop 3/1-5 Hilltop Rd, Avalon Beach NSW 2107, Australia"
111,Avalon Beach,2107,Fernando’s Peruvian Rotisserie,restaurant,5,44,151.3344879,-33.6273841,"5/1 N Avalon Rd, Avalon Beach NSW 2107, Australia"
111,Avalon Beach,2107,Oceana Traders - Seafood Merchants,restaurant,4.4,127,151.3287557,-33.6369678,"31 Old Barrenjoey Rd, Avalon Beach NSW 2107, Australia"
111,Avalon Beach,2107,Cranzgots Pizza Cafe,restaurant,4.5,69,151.3336154,-33.6217678,"1 Careel Head Rd, Avalon Beach NSW 2107, Australia"
111,Avalon Beach,2107,Beach House Avalon,restaurant,3.8,364,151.3313625,-33.6360628,"558A Barrenjoey Rd, Avalon Beach NSW 2107, Australia"
111,Avalon Beach,2107,SKY Thai,restaurant,4.1,70,151.3297079,-33.6367609,"21 Avalon Parade, Avalon Beach NSW 2107, Australia"
111,Avalon Beach,2107,Alma,restaurant,4.2,157,151.3290766,-33.6365431,"47 Old Barrenjoey Rd, Avalon Beach NSW 2107, Australia"
111,Avalon Beach,2107,Bangkok Sidewalk,restaurant,4.6,36,151.3283561,-33.6375008,"Shop 1/21-23 Old Barrenjoey Rd, Avalon Beach NSW 2107, Australia"
111,Avalon Beach,2107,Meltemi Pizzeria Restaurant,restaurant,4.1,76,151.328773,-33.637702,"1/46 Old Barrenjoey Rd, Avalon Beach NSW 2107, Australia"
111,Avalon Beach,2107,Ninja Japanese Restaurant,restaurant,4.2,36,151.3299906,-33.6371427,"6/11-13 Avalon Parade, Avalon Beach NSW 2107, Australia"
111,Avalon Beach,2107,Mali Thai Restaurant,restaurant,4.5,44,151.3341523,-33.6214689,"11 Careel Head Rd, Avalon Beach NSW 2107, Australia"
111,Avalon Beach,2107,Mekong Merchant Avalon,restaurant,4.7,34,151.3280958,-33.6360352,"53 Avalon Parade, Avalon Beach NSW 2107, Australia"
111,Avalon Beach,2107,Nourished Wholefood Cafe,restaurant,4.3,197,151.32967,-33.636864,"17 Avalon Parade, Avalon Beach NSW 2107, Australia"
111,Avalon Beach,2107,Avalon Chinese Restaurant,restaurant,3.9,29,151.3297284,-33.6361865,"74 Old Barrenjoey Rd, Avalon Beach NSW 2107, Australia"
111,Avalon Beach,2107,Beco@Chelsea,restaurant,4.5,84,151.329008,-33.637674,"2/48 Old Barrenjoey Rd, Avalon Beach NSW 2107, Australia"
111,Avalon Beach,2107,Koto Avalon,restaurant,4.2,70,151.329091,-33.636127,"3/49 Old Barrenjoey Rd, Avalon Beach NSW 2107, Australia"
111,Avalon Beach,2107,Sabiang Thai Restaurant,restaurant,4.3,100,151.3290905,-33.6361271,"4/49 Old Barrenjoey Rd, Avalon Beach NSW 2107, Australia"
111,Avalon Beach,2107,Han Court Chinese Restaurant,restaurant,4,18,151.3289976,-33.6373127,"54 Old Barrenjoey Rd, Avalon Beach NSW 2107, Australia"
111,Avalon Beach,2107,Curry By the Curve,restaurant,4.7,68,151.3170131,-33.629443,"Shop 5/25 Hudson Parade, Avalon Beach NSW 2107, Australia"
111,Avalon Beach,2107,Rozana,restaurant,4.1,19,151.32892,-33.6376773,"48 Old Barrenjoey Rd, Avalon Beach NSW 2107, Australia"
111,Avalon Beach,2107,Burgers on Parade,restaurant,3.7,77,151.3294028,-33.6366072,"29 Avalon Parade, Avalon Beach NSW 2107, Australia"
111,Avalon Beach,2107,Wasabi Japanese Sushi Bar,restaurant,3.8,32,151.3286047,-33.6379856,"shop 1/40 Old Barrenjoey Rd, Avalon Beach NSW 2107, Australia"
111,Avalon Beach,2107,Girdlers - Avalon,restaurant,4.1,31,151.3169523,-33.6293528,"Shop 1/1-5 Hilltop Rd, Avalon Beach NSW 2107, Australia"
111,Avalon Beach,2107,The Chick'n Shack,restaurant,4.2,28,151.3336204,-33.6218917,"Shop 7/1 Careel Head Rd, Avalon Beach NSW 2107, Australia"
111,Avalon Beach,2107,Urban Curry,restaurant,3.8,43,151.3336204,-33.6218917,"5/1 Careel Head Rd, Avalon Beach NSW 2107, Australia"
111,Avalon Beach,2107,Café Relish,restaurant,4.5,103,151.3346403,-33.6274171,"8/1 N Avalon Rd, Avalon Beach NSW 2107, Australia"
111,Avalon Beach,2107,Robin's Nest Chicken Shop,restaurant,4,24,151.329017,-33.6373786,"52 Old Barrenjoey Rd, Avalon Beach NSW 2107, Australia"
111,Avalon Beach,2107,Bistro 61,restaurant,4.3,3,151.3285888,-33.6354409,"1 Bowling Green Ln, Avalon Beach NSW 2107, Australia"
111,Avalon Beach,2107,Solace Avalon,restaurant,4,3,151.3292739,-33.6368746,"3 Simmonds La, Avalon Beach NSW 2107, Australia"
111,Avalon Beach,2107,Avalon Beach RSL Club,restaurant,4.2,165,151.328626,-33.635333,"1 Bowling Green Ln, Avalon Beach NSW 2107, Australia"
111,Avalon Beach,2107,Maestro Avalon,restaurant,4.6,8,151.3288874,-33.6374611,"50 Old Barrenjoey Rd, Avalon Beach NSW 2107, Australia"
111,Avalon Beach,2107,Avalon Charcoal Chicken,restaurant,0,0,151.328055,-33.636177,"8/40-42 Avalon Parade, Avalon Beach NSW 2107, Australia"
111,Avalon Beach,2107,Togi Sushi,restaurant,3,2,151.3286206,-33.6359529,"24 Avalon Parade, Avalon Beach NSW 2107, Australia"
114,Avoca Beach,2251,Avoca Valley Bed and Breakfast,restaurant,4.5,35,151.4027418,-33.4640463,"243 Avoca Dr, Avoca Beach NSW 2251, Australia"
114,Avoca Beach,2251,Avoca Beach Pizza and Pasta Cafe,restaurant,4.2,100,151.433108,-33.46544069999999,"172 Avoca Dr, Avoca Beach NSW 2251, Australia"
114,Avoca Beach,2251,Avoca Surf House,restaurant,4.2,75,151.4360126,-33.4707199,"85 Avoca Dr, Avoca Beach NSW 2251, Australia"
114,Avoca Beach,2251,Avoca Beach Seafoods,restaurant,4.3,413,151.4361531,-33.47061,"1/85 Avoca Dr, Avoca Beach NSW 2251, Australia"
114,Avoca Beach,2251,All Malay,restaurant,4,118,151.433332,-33.4654478,"14/172 Avoca Dr, Avoca Beach NSW 2251, Australia"
114,Avoca Beach,2251,Like Minds,restaurant,4.8,164,151.426802,-33.4624008,"352 The Round Dr, Avoca Beach NSW 2251, Australia"
114,Avoca Beach,2251,Treetops Restaurant,restaurant,4.5,15,151.4144525,-33.466342,"326-360 Avoca Dr, Avoca Beach NSW 2251, Australia"
114,Avoca Beach,2251,Avoca Sands Café ~ Bar,restaurant,4.2,126,151.4361625,-33.4707465,"6 Vale Ave, Avoca Beach NSW 2251, Australia"
114,Avoca Beach,2251,Point Cafe,restaurant,4.2,270,151.4370727,-33.4706212,"10 Vine St, Avoca Beach NSW 2251, Australia"
114,Avoca Beach,2251,Becker & Co.,restaurant,4.4,82,151.4336297,-33.466297,"2/162 Avoca Dr, Avoca Beach NSW 2251, Australia"
114,Avoca Beach,2251,Sunsets Bistro,restaurant,3.8,28,151.437012,-33.4706998,"10 Vine St, Avoca Beach NSW 2251, Australia"
114,Avoca Beach,2251,Sul Rondo,restaurant,4.3,93,151.4334604,-33.4655077,"4/170 Avoca Dr, Avoca Beach NSW 2251, Australia"
114,Avoca Beach,2251,Avoca Thai,restaurant,3.7,57,151.4311508,-33.4650518,"4/200 Avoca Dr, Avoca Beach NSW 2251, Australia"
114,Avoca Beach,2251,Chopstix,restaurant,3.7,46,151.43361,-33.465995,"168a Avoca Dr, Avoca Beach NSW 2251, Australia"
114,Avoca Beach,2251,Avoca Beach Bowling and Recreation Club,restaurant,4.3,254,151.4131652,-33.4663139,"Avoca Dr & Townsend Ave, Avoca Beach NSW 2251, Australia"
114,Avoca Beach,2251,Saltwater Bar & Bistro,restaurant,4.9,7,151.4153188,-33.466519,"326-360 Avoca Dr, Avoca Beach NSW 2251, Australia"
146,Balgowlah,2093,Roseberry Street Cafe,restaurant,4.4,251,151.2670984,-33.7902538,"2/62 Balgowlah Rd, Balgowlah NSW 2093, Australia"
146,Balgowlah,2093,Pizza Hut Balgowlah,restaurant,4.1,67,151.2657493,-33.7943849,"312 Sydney Rd, Balgowlah NSW 2093, Australia"
146,Balgowlah,2093,The pizza shop,restaurant,4.7,51,151.2634979,-33.7941525,"396 Sydney Rd, Balgowlah NSW 2093, Australia"
146,Balgowlah,2093,The Taste of Spring Hills,restaurant,4.3,18,151.264599,-33.7930742,"Balgowlah NSW 2093, Australia"
146,Balgowlah,2093,Bacino Bar Balgowlah,restaurant,4.5,80,151.2641393,-33.7944796,"Shop1/381-383 Sydney Rd, Balgowlah NSW 2093, Australia"
146,Balgowlah,2093,Forty Beans,restaurant,4.4,122,151.2641789,-33.799365,"2/11 Lower Beach St, Balgowlah NSW 2093, Australia"
146,Balgowlah,2093,Balgowlah Loves Takeaway,restaurant,0,0,151.265302,-33.7942562,"328 Sydney Rd, Balgowlah NSW 2093, Australia"
146,Balgowlah,2093,Club Totem,restaurant,3.9,80,151.264851,-33.7937,"195 Condamine St, Balgowlah NSW 2093, Australia"
146,Balgowlah,2093,Crust Pizza Balgowlah,restaurant,3.8,44,151.2657239,-33.7946524,"335-337 Sydney Rd, Balgowlah NSW 2093, Australia"
146,Balgowlah,2093,Laziza Middle Eastern Restaurant,restaurant,5,1,151.264507,-33.794487,"371-373 Sydney Rd, Balgowlah NSW 2093, Australia"
146,Balgowlah,2093,Malibu Grill,restaurant,4.1,31,151.264612,-33.792684,"18/197-215 Condamine St, Balgowlah NSW 2093, Australia"
146,Balgowlah,2093,Mr Snack - Balgowlah,restaurant,5,2,151.264501,-33.794463,"373 Sydney Rd, Balgowlah NSW 2093, Australia"
146,Balgowlah,2093,I Love Pizza Balgowlah,restaurant,3.7,94,151.264547,-33.794118,"348 Sydney Rd, Balgowlah NSW 2093, Australia"
146,Balgowlah,2093,Moreish Foods,restaurant,4.2,38,151.2642695,-33.7929847,"15/197-215 Condamine St, Balgowlah NSW 2093, Australia"
146,Balgowlah,2093,Sushi Izu,restaurant,4.3,4,151.267227,-33.78798099999999,"23 Roseberry St, Balgowlah NSW 2093, Australia"
146,Balgowlah,2093,Chez Maurice Et Linda,restaurant,4.5,117,151.2662436,-33.7945062,"292 Sydney Rd, Balgowlah NSW 2093, Australia"
146,Balgowlah,2093,Fish Cafe Balgowlah,restaurant,4.5,235,151.2644605,-33.7938239,"70/215 Condamine St, Balgowlah NSW 2093, Australia"
146,Balgowlah,2093,Monkey King Thai Restaurant - Balgowlah,restaurant,4.3,128,151.2648665,-33.7936631,"Shop 68/197 - 215 Condamine St, Balgowlah NSW 2093, Australia"
146,Balgowlah,2093,Lapis Lazuli Afghan Flavours,restaurant,4.8,61,151.2645559,-33.7944666,"371 Sydney Rd, Balgowlah NSW 2093, Australia"
146,Balgowlah,2093,Tamagawa Japanese Restaurant,restaurant,4.6,183,151.2655867,-33.79420880000001,"318 Sydney Rd, Balgowlah NSW 2093, Australia"
146,Balgowlah,2093,Phulkari Indian Cuisine,restaurant,4.7,533,151.265302,-33.7942562,"328 Sydney Rd, Balgowlah NSW 2093, Australia"
146,Balgowlah,2093,Balgowlah Social Eatery & Espresso Bar,restaurant,4.9,139,151.2652212,-33.7945892,"357 Sydney Rd, Balgowlah NSW 2093, Australia"
146,Balgowlah,2093,Ajmer's Indian Restaurant,restaurant,4.4,77,151.2645116,-33.7946387,"373 Sydney Rd, Balgowlah NSW 2093, Australia"
146,Balgowlah,2093,We are Thai Restaurant Balgowlah,restaurant,4.5,29,151.264645,-33.79464919999999,"367 Sydney Rd, Balgowlah NSW 2093, Australia"
146,Balgowlah,2093,Krung Thai Restaurant,restaurant,4.8,52,151.265924,-33.7942024,"304 Sydney Rd, Balgowlah NSW 2093, Australia"
146,Balgowlah,2093,Zeus Street Greek,restaurant,4.1,244,151.2639592,-33.7944409,"385 Sydney Rd, Balgowlah NSW 2093, Australia"
146,Balgowlah,2093,Ray's Pizza Ciao Belli,restaurant,4.1,99,151.264742,-33.794107,"193a Condamine St, Balgowlah NSW 2093, Australia"
146,Balgowlah,2093,Charlotte,restaurant,4.6,20,151.258113,-33.794909,"68 Wanganella St, Balgowlah NSW 2093, Australia"
146,Balgowlah,2093,Forty Baskets Restaurant,restaurant,4.2,18,151.2646322,-33.7937656,"195 Condamine St, Balgowlah NSW 2093, Australia"
146,Balgowlah,2093,Ying Wah Chinese Restaurant,restaurant,3.7,56,151.2645958,-33.7944824,"369 Sydney Rd, Balgowlah NSW 2093, Australia"
146,Balgowlah,2093,Roseberry Sandwich Bar,restaurant,4.8,24,151.267549,-33.790059,"2A Roseberry St, Balgowlah NSW 2093, Australia"
146,Balgowlah,2093,Bean Obsessed,restaurant,4.4,24,151.2646694,-33.7932651,"215 Condamine St, Balgowlah NSW 2093, Australia"
146,Balgowlah,2093,Maroo Sushi,restaurant,3.8,15,151.2646304,-33.7931087,"197 Condamine St, Balgowlah NSW 2093, Australia"
146,Balgowlah,2093,Dumpling Inn Chinese Restaurant,restaurant,3.4,51,151.2655169,-33.7944083,"318 Sydney Rd, Balgowlah NSW 2093, Australia"
146,Balgowlah,2093,Woolworths,restaurant,4.2,541,151.2673255,-33.787629,"17/31 Roseberry St, Balgowlah NSW 2093, Australia"
146,Balgowlah,2093,Essence Café,restaurant,4.2,9,151.264485,-33.793636,"Shop 2, Stockland Balgowlah, 197-215 Condamine St, Balgowlah NSW 2093, Australia"
147,Balgowlah Heights,2093,Balgowlah Heights Deli,restaurant,4.4,52,151.2574534,-33.8010442,"2093/122 Beatrice St, Balgowlah Heights NSW 2093, Australia"
147,Balgowlah Heights,2093,RBP's Smokaroma,restaurant,0,0,151.2607993,-33.80718510000001,"Balgowlah Heights NSW 2093, Australia"
147,Balgowlah Heights,2093,Rephuel,restaurant,3.3,3,151.2629385,-33.8070419,"Shop 3/29 Dobroyd Rd, Balgowlah Heights NSW 2093, Australia"
147,Balgowlah Heights,2093,Costela Ribs and Rumps,restaurant,3.3,4,151.2637376,-33.8082218,"Bareena Dr, Balgowlah Heights NSW 2093, Australia"
147,Balgowlah Heights,2093,saigo,restaurant,0,0,151.2629421,-33.8070351,"Shop 2/33 Dobroyd Rd, Balgowlah Heights NSW 2093, Australia"
148,Balgownie,2519,IL Porcellino Trattoria & Pizzeria,restaurant,4.2,100,150.8773034,-34.3891174,"2 Kembla St, Balgownie NSW 2519, Australia"
148,Balgownie,2519,Il Nido Trattoria Pizzeria,restaurant,4.1,144,150.8780318,-34.3884406,"1/154 Balgownie Rd, Balgownie NSW 2519, Australia"
148,Balgownie,2519,Jade Court Chinese Restaurant,restaurant,3.7,55,150.879236,-34.388485,"126 Balgownie Rd, Balgownie NSW 2519, Australia"
148,Balgownie,2519,Nourished at Bally,restaurant,4.3,32,150.877642,-34.3887599,"139 Balgownie Rd, Balgownie NSW 2519, Australia"
155,Ballina,2478,The Terrace Restaurant and Bar,restaurant,4.5,2,153.5370901,-28.8629184,"1 Ronan Pl, Ballina NSW 2478, Australia"
155,Ballina,2478,Panda Noodles Ballina,restaurant,3.8,48,153.5581385,-28.8697869,"216 River St, Ballina NSW 2478, Australia"
155,Ballina,2478,Subway,restaurant,4,68,153.5586062,-28.8592788,"82 Kerr St, Ballina NSW 2478, Australia"
155,Ballina,2478,Racecourse Cafe,restaurant,4.6,28,153.5588378,-28.8507137,"1/1 Simmons St, Ballina NSW 2478, Australia"
155,Ballina,2478,Ballina Byron Islander Resort,restaurant,4.1,141,153.5371704,-28.8627586,"1 Ronan Pl, Ballina NSW 2478, Australia"
155,Ballina,2478,Domino's Pizza Ballina,restaurant,3.8,160,153.555529,-28.868357,"Shop 1/271 River St, Ballina NSW 2478, Australia"
155,Ballina,2478,Sasha's Fine Food,restaurant,5,6,153.5603721,-28.8706865,"126-128 River St, Ballina NSW 2478, Australia"
155,Ballina,2478,Chicken Mania,restaurant,3.8,90,153.5622368,-28.8714783,"70 River St, Ballina NSW 2478, Australia"
155,Ballina,2478,Riva Bar & Grill,restaurant,5,4,153.5624457,-28.8727355,"2 Martin St, Ballina NSW 2478, Australia"
155,Ballina,2478,The Lantern Tea Room,restaurant,4.3,32,153.5627043,-28.8587799,"Shop 9/44 Bangalow Rd, Ballina NSW 2478, Australia"
155,Ballina,2478,Taco Bell Ballina,restaurant,3.7,6,153.5596104,-28.8599622,"95 Fox St, Ballina NSW 2478, Australia"
155,Ballina,2478,Pipers Catering,restaurant,4,11,153.5543285,-28.8451675,"30 Piper Dr, Ballina NSW 2478, Australia"
155,Ballina,2478,Popeye's Takeaway,restaurant,3.7,39,153.558424,-28.869863,"204 River St, Ballina NSW 2478, Australia"
155,Ballina,2478,Martin's Bakery Ballina,restaurant,4.6,62,153.5586125,-28.8689061,"92 Tamar St, Ballina NSW 2478, Australia"
155,Ballina,2478,Sunshine Kebabs Ballina,restaurant,0,0,153.558858,-28.858393,"104 Kerr St, Ballina NSW 2478, Australia"
155,Ballina,2478,Main Street Cafe,restaurant,4.2,35,153.5587114,-28.8703043,"2 Moon St, Ballina NSW 2478, Australia"
155,Ballina,2478,Dee Bee's Takeaway,restaurant,4,1,153.5634299,-28.8665956,"62 Cherry St, Ballina NSW 2478, Australia"
155,Ballina,2478,Henry Rous Tavern,restaurant,4.2,203,153.55911,-28.8695687,"177 River St, Ballina NSW 2478, Australia"
155,Ballina,2478,Wharf Bar & Restaurant Ballina,restaurant,4,496,153.559784,-28.871125,"12-24 Fawcett St, Ballina NSW 2478, Australia"
155,Ballina,2478,Che Bon Restaurant Ballina,restaurant,4.7,230,153.5623885,-28.8695498,"37-41 Cherry St, Ballina NSW 2478, Australia"
155,Ballina,2478,Fleurs Restaurant,restaurant,4.5,29,153.552399,-28.8668008,"301 River St, Ballina NSW 2478, Australia"
155,Ballina,2478,The Cove Ballina,restaurant,4.6,70,153.5579697,-28.8698001,"216/234 River St, Ballina NSW 2478, Australia"
155,Ballina,2478,Mr Mozzarella Ballina,restaurant,5,17,153.5627043,-28.8587799,"11/44 Bangalow Rd, Ballina NSW 2478, Australia"
155,Ballina,2478,Thai by Night,restaurant,4.5,176,153.5587001,-28.8696262,"Unit 2/187 River St, Ballina NSW 2478, Australia"
155,Ballina,2478,Bob's Tacos,restaurant,5,12,153.5600714,-28.8706957,"#3/140 River St, Ballina NSW 2478, Australia"
155,Ballina,2478,Mexican Del Rio,restaurant,4.5,84,153.5585953,-28.8699126,"196 River St, Ballina NSW 2478, Australia"
155,Ballina,2478,Mumbai Masala Indian Restaurant,restaurant,4.7,79,153.5629607,-28.8721343,"Seamark, 13, 14/4 Martin St, Ballina NSW 2478, Australia"
155,Ballina,2478,Rakuu,restaurant,4.4,52,153.5583126,-28.8698641,"208 River St, Ballina NSW 2478, Australia"
155,Ballina,2478,A Fish Shop Called Dory's,restaurant,4.4,245,153.559381,-28.8699555,"173 River St, Ballina NSW 2478, Australia"
155,Ballina,2478,Beanz,restaurant,4.9,59,153.5580392,-28.8697074,"222 River St, Ballina NSW 2478, Australia"
155,Ballina,2478,Ballina's Indian Kitchen,restaurant,4.3,159,153.5617541,-28.8717882,"24/70 River St, Ballina NSW 2478, Australia"
155,Ballina,2478,Hoi Shing Restaurant Ballina,restaurant,3.9,88,153.554165,-28.867542,"283 River St, Ballina NSW 2478, Australia"
155,Ballina,2478,Red Wok,restaurant,4.3,141,153.5604865,-28.8712233,"35 Fawcett St, Ballina NSW 2478, Australia"
155,Ballina,2478,Sonnie's Thai,restaurant,4.6,47,153.5616619,-28.87075579999999,"95 River St, Ballina NSW 2478, Australia"
155,Ballina,2478,TA’s Lunchbox,restaurant,4.9,18,153.5560678,-28.8686005,"Shop 2/261-263 River St, Ballina NSW 2478, Australia"
155,Ballina,2478,La Cucina di Vino,restaurant,3.8,119,153.5623565,-28.8726378,"2 Martin St, Ballina NSW 2478, Australia"
155,Ballina,2478,Chef and Shuka,restaurant,4.8,163,153.5631208,-28.8714918,"43 River St, Ballina NSW 2478, Australia"
155,Ballina,2478,The Gallery Cafe,restaurant,4.5,237,153.5619659,-28.8686905,"46 Cherry St, Ballina NSW 2478, Australia"
155,Ballina,2478,Oriental Pearl Restaurant,restaurant,4.1,90,153.5516667,-28.8666667,"315 River St, Ballina NSW 2478, Australia"
155,Ballina,2478,Burrito Bar Ballina,restaurant,4,164,153.562345,-28.858654,"Ballina Central Shopping Centre, 13/44 Bangalow Rd, Ballina NSW 2478, Australia"
155,Ballina,2478,Raamons Pizza,restaurant,4.4,146,153.55797,-28.86979999999999,"220 River St, Ballina NSW 2478, Australia"
155,Ballina,2478,Malibu Burgers,restaurant,4.2,99,153.5615528,-28.8707988,"97 River St, Ballina NSW 2478, Australia"
155,Ballina,2478,Cafe Swish,restaurant,4.5,212,153.559995,-28.870189,"147 River St, Ballina NSW 2478, Australia"
155,Ballina,2478,Two Hands Cafe,restaurant,4.5,79,153.5588105,-28.8702519,"2 Moon St, Ballina NSW 2478, Australia"
155,Ballina,2478,Cherry Street Sports Club,restaurant,4.3,382,153.5638523,-28.8651004,"68 Cherry St, Ballina NSW 2478, Australia"
155,Ballina,2478,Hong's Kitchen,restaurant,4.7,22,153.5619888,-28.8585171,"Ballina Central Shopping Centre, 17/44 Bangalow Rd, Ballina NSW 2478, Australia"
155,Ballina,2478,Bondies at The Bay,restaurant,4.3,100,153.565604,-28.8722164,"8 Norton St, Ballina NSW 2478, Australia"
155,Ballina,2478,Sushi Kuni,restaurant,3.9,92,153.5622023,-28.858599,"Ballina Central Shopping Centre, 15/44 Bangalow Rd, Ballina NSW 2478, Australia"
155,Ballina,2478,Sushi Naru,restaurant,4.2,46,153.5586289,-28.8593046,"117/111 Fox St, Ballina NSW 2478, Australia"
155,Ballina,2478,Belle Central,restaurant,4.4,165,153.560339,-28.869883,"Shop 12 Wigmore Arcade 141 River Street, Ballina NSW 2478, Australia"
155,Ballina,2478,Seven Mile Brewing Co,restaurant,4.8,145,153.5550642,-28.8388139,"188-202 Southern Cross Dr, Ballina NSW 2478, Australia"
155,Ballina,2478,The Manor Restaurant,restaurant,5,3,153.567414,-28.870296,"25 Norton St, Ballina NSW 2478, Australia"
155,Ballina,2478,Ballina RSL,restaurant,4.1,1083,153.556941,-28.869492,"1 Grant St, Ballina NSW 2478, Australia"
155,Ballina,2478,Green Coast Coffee,restaurant,4.8,83,153.5600033,-28.8705498,"Shop 1, 2 & 3 Riverwalk Centre, 144 River St, Ballina NSW 2478, Australia"
158,Balmain,2041,Rosso Pomodoro Balmain,restaurant,4.5,494,151.18011,-33.863394,"20-24 Buchanan St, Balmain NSW 2041, Australia"
158,Balmain,2041,Our Place on Darling,restaurant,4.5,148,151.1832502,-33.85785020000001,"225 Darling St, Balmain NSW 2041, Australia"
158,Balmain,2041,One Ford Street,restaurant,4.5,141,151.1822615,-33.8573798,"1 Ford St, Balmain NSW 2041, Australia"
158,Balmain,2041,The Cottage Bar & Kitchen,restaurant,4.4,306,151.1788517,-33.8568661,"342 Darling St, Balmain NSW 2041, Australia"
158,Balmain,2041,Wilhelmina's,restaurant,4.6,166,151.1793799,-33.8569024,"Shop 4/332 Darling St, Balmain NSW 2041, Australia"
158,Balmain,2041,Sit Nee Thai Restaurant,restaurant,5,17,151.172945,-33.8562514,"475 Darling St, Balmain NSW 2041, Australia"
158,Balmain,2041,Sofie's Greek Restaurant,restaurant,4.7,151,151.1756854,-33.8562227,"Level 1/386 Darling St, Balmain NSW 2041, Australia"
158,Balmain,2041,Cantina Bar Balmain,restaurant,3.9,161,151.1785868,-33.8567347,"350 Darling St, Balmain NSW 2041, Australia"
158,Balmain,2041,Greek Door,restaurant,4.7,44,151.1856188,-33.8581627,"191 Darling St, Balmain NSW 2041, Australia"
158,Balmain,2041,Not Just Curries Balmain,restaurant,4.3,203,151.1830488,-33.8577171,"235 Darling St, Balmain NSW 2041, Australia"
158,Balmain,2041,Phamous Kitchen,restaurant,4.2,94,151.183081,-33.857756,"233 Darling St, Balmain NSW 2041, Australia"
158,Balmain,2041,Meyhanee Balmain,restaurant,4,175,151.1760549,-33.856195,"374 Darling St, Balmain NSW 2041, Australia"
158,Balmain,2041,The Riverview Hotel,restaurant,4.3,404,151.1753018,-33.8549294,"29 Birchgrove Rd, Balmain NSW 2041, Australia"
158,Balmain,2041,Chon Thai,restaurant,4.3,97,151.180527,-33.8574062,"300 Darling St, Balmain NSW 2041, Australia"
158,Balmain,2041,God's Creation,restaurant,4.7,61,151.1783834,-33.856734,"358 Darling St, Balmain NSW 2041, Australia"
158,Balmain,2041,La saveur French Restaurant,restaurant,4.4,42,151.1755606,-33.8562075,"390 Darling St, Balmain NSW 2041, Australia"
158,Balmain,2041,SAMURAI,restaurant,4.6,124,151.1724704,-33.8568034,"493A Darling St, Balmain NSW 2041, Australia"
158,Balmain,2041,Blue Ginger,restaurant,4.2,107,151.1826977,-33.8576865,"241 Darling St, Balmain NSW 2041, Australia"
158,Balmain,2041,Contessa,restaurant,4.5,284,151.177681,-33.856247,"371B Darling St, Balmain NSW 2041, Australia"
158,Balmain,2041,New Star Takeaway & Eat,restaurant,4.4,111,151.1813889,-33.8575,"10/269-271 Darling St, Balmain NSW 2041, Australia"
158,Balmain,2041,Marina Lunga,restaurant,4.2,89,151.1778256,-33.8563633,"367 Darling St, Balmain NSW 2041, Australia"
158,Balmain,2041,Dinette Thai,restaurant,4.3,52,151.175684,-33.856225,"388 Darling St, Balmain NSW 2041, Australia"
158,Balmain,2041,Gigi's Pizzeria,restaurant,4,379,151.1829418,-33.8576837,"239 Darling St, Balmain NSW 2041, Australia"
158,Balmain,2041,Teriyaki Boy,restaurant,4.5,67,151.1728528,-33.8564056,"481 Darling St, Balmain NSW 2041, Australia"
158,Balmain,2041,BURGERHOOD,restaurant,4.1,196,151.1794028,-33.8569167,"Shop 1/332 Darling St, Balmain NSW 2041, Australia"
158,Balmain,2041,Mushiro Japanese Restaurant,restaurant,4,102,151.1832085,-33.8578275,"227 Darling St, Balmain NSW 2041, Australia"
158,Balmain,2041,The Balmain Hotel,restaurant,4.2,430,151.176809,-33.861411,"72-76 Mullens St, Balmain NSW 2041, Australia"
158,Balmain,2041,Shila Kitchen,restaurant,4.7,71,151.1795221,-33.8565767,"325 Darling St, Balmain NSW 2041, Australia"
158,Balmain,2041,Pepper Seeds,restaurant,4.2,80,151.1745952,-33.8561621,"10/418 Darling St, Balmain NSW 2041, Australia"
158,Balmain,2041,Pizza & Co Balmain,restaurant,4.8,61,151.1745952,-33.8561621,"Shop 1/418 Darling St, Balmain NSW 2041, Australia"
158,Balmain,2041,Maharaja's Indian Cuisine,restaurant,4.4,84,151.1803372,-33.8573318,"304 Darling St, Balmain NSW 2041, Australia"
158,Balmain,2041,Le Cafeier,restaurant,4.3,146,151.1799621,-33.8570518,"314/322 Darling St, Balmain NSW 2041, Australia"
158,Balmain,2041,Fundamental,restaurant,4.3,89,151.1817916,-33.857823,"266 Darling St, Balmain NSW 2041, Australia"
158,Balmain,2041,Sushi Man,restaurant,4.3,113,151.1798503,-33.8567217,"321A Darling St, Balmain NSW 2041, Australia"
158,Balmain,2041,The London Hotel,restaurant,4.4,481,151.184537,-33.858406,"234 Darling St, Balmain NSW 2041, Australia"
158,Balmain,2041,Mr. Cafe & Bar,restaurant,4.4,105,151.1745646,-33.8561578,"Shop 11/418 Darling St, Balmain NSW 2041, Australia"
158,Balmain,2041,Dolce Napoli,restaurant,4.8,10,151.179159,-33.8569942,"336 Darling St, Balmain NSW 2041, Australia"
158,Balmain,2041,P'Nut Street Noodles | Balmain,restaurant,4.1,92,151.175495,-33.855837,"415 Darling St, Balmain NSW 2041, Australia"
158,Balmain,2041,Wok Flavour,restaurant,4.2,22,151.1800992,-33.8627698,"2-18 Buchanan St, Balmain NSW 2041, Australia"
158,Balmain,2041,Pizza Empire,restaurant,4,43,151.17599,-33.8559164,"413 Darling St, Balmain NSW 2041, Australia"
158,Balmain,2041,The Royal Oak,restaurant,4.3,374,151.180929,-33.8556707,"36 College St, Balmain NSW 2041, Australia"
158,Balmain,2041,The Workers Bar & Kitchen,restaurant,4,159,151.180804,-33.8576484,"1/292 Darling St, Balmain NSW 2041, Australia"
158,Balmain,2041,Balmain Spitroast,restaurant,3.8,37,151.1800321,-33.8571284,"shop 1/314-322 Darling St, Balmain NSW 2041, Australia"
158,Balmain,2041,Kafeine,restaurant,4.3,274,151.1819929,-33.8578655,"260 Darling St, Balmain NSW 2041, Australia"
158,Balmain,2041,Joe's Catch Of The Day,restaurant,4.1,14,151.1797849,-33.8570037,"4/314 Darling St, Balmain NSW 2041, Australia"
158,Balmain,2041,Pulcinella at The Exchange,restaurant,4.6,9,151.1773659,-33.8590006,"94 Beattie St, Balmain NSW 2041, Australia"
158,Balmain,2041,Darling Kebabs,restaurant,3.7,11,151.1801443,-33.8569765,"309 Darling St, Balmain NSW 2041, Australia"
158,Balmain,2041,Sushi Hub Balmain,restaurant,3.7,37,151.181232,-33.8573951,"279 Darling St, Balmain NSW 2041, Australia"
158,Balmain,2041,Latin Corner,restaurant,4,11,151.1796612,-33.8566035,"323 Darling St, Balmain NSW 2041, Australia"
158,Balmain,2041,Our Farm Kitchen,restaurant,4.4,28,151.178456,-33.856838,"354 Darling St, Balmain NSW 2041, Australia"
158,Balmain,2041,Rita's Bar and Kitchen,restaurant,4.1,8,151.1726837,-33.8569869,"@ The Cat and Fiddle, 456 Darling St, Balmain NSW 2041, Australia"
158,Balmain,2041,Cat & Fiddle Hotel,restaurant,3.9,240,151.1727431,-33.8568279,"456 Darling St, Balmain NSW 2041, Australia"
159,Balmain East,2041,The Fenwick,restaurant,4.2,182,151.1957517,-33.8573365,"2-8 Weston St, Balmain East NSW 2041, Australia"
159,Balmain East,2041,Cappello Pizzeria,restaurant,4.3,121,151.192409,-33.857343,"79 Darling St, Balmain East NSW 2041, Australia"
166,Bangalee,2541,Cambewarra Estate Winery,restaurant,4.4,52,150.559522,-34.839385,"520 Illaroo Rd, Bangalee NSW 2541, Australia"
167,Bangalow,2479,The Italian Diner,restaurant,4.2,119,153.524638,-28.686276,"37-39 Byron St, Bangalow NSW 2479, Australia"
167,Bangalow,2479,Town Restaurant,restaurant,4.4,60,153.5244944,-28.6862466,"33 Byron St, Bangalow NSW 2479, Australia"
167,Bangalow,2479,Our Corner Kitchen,restaurant,4.3,128,153.5246971,-28.6864646,"3/38 Byron St, Bangalow NSW 2479, Australia"
167,Bangalow,2479,Sparrow Coffee - Bangalow,restaurant,4.7,38,153.5244811,-28.68651819999999,"1A/32-34 Byron St, Bangalow NSW 2479, Australia"
167,Bangalow,2479,Bamboo Thai food,restaurant,4.3,41,153.5233621,-28.6867616,"12A Byron St, Bangalow NSW 2479, Australia"
167,Bangalow,2479,WOODS BANGALOW,restaurant,4.4,146,153.5244742,-28.6854186,"10 Station St, Bangalow NSW 2479, Australia"
167,Bangalow,2479,Bangalow Dining Room,restaurant,4.4,9,153.5235265,-28.686487,"1 Byron St, Bangalow NSW 2479, Australia"
167,Bangalow,2479,Uptown,restaurant,4.4,5,153.5244944,-28.6862466,"33 Byron St, Bangalow NSW 2479, Australia"
167,Bangalow,2479,BANGBURGERBAR,restaurant,4.2,189,153.525206,-28.686187,"2/39 Byron St, Bangalow NSW 2479, Australia"
167,Bangalow,2479,Tsang's Chinese Restaurant,restaurant,3.1,17,153.5252372,-28.6861727,"43 Byron St, Bangalow NSW 2479, Australia"
167,Bangalow,2479,Red Ginger Asian Bangalow,restaurant,4.2,18,153.5247191,-28.6865156,"38 Byron St, Bangalow NSW 2479, Australia"
167,Bangalow,2479,Bangalow Espressobar,restaurant,5,1,153.5246247,-28.6863123,"3/38 Byron St, Bangalow NSW 2479, Australia"
167,Bangalow,2479,Hemp Foods Australia,restaurant,5,6,153.510363,-28.6980927,"6 Dudgeons Ln, Bangalow NSW 2479, Australia"
170,Bangor,2234,Peter's Chinese and Malaysian Restaurant,restaurant,4.5,50,151.0295731,-34.0182741,"Shop 7, Bangor Shopping Centre, Yala Rd, Bangor NSW 2234, Australia"
170,Bangor,2234,Bangor Tavern,restaurant,4,311,151.0290051,-34.0183642,"Menai Rd, Bangor NSW 2234, Australia"
170,Bangor,2234,Mother Clucka,restaurant,4.2,5,151.0293968,-34.0181636,"Shop 17, Bangor Shopping Centre, 121 Yala Rd, Bangor NSW 2234, Australia"
170,Bangor,2234,Tropical Snow Snocones,restaurant,5,1,151.030336,-34.017754,"P.O.Box 3433, Bangor NSW 2234, Australia"
171,Banksia,2216,Banksia Takeaway,restaurant,4.5,20,151.140093,-33.944765,"19 Railway St, Banksia NSW 2216, Australia"
171,Banksia,2216,Third Eye Rooftop Restaurant,restaurant,3.9,393,151.1402778,-33.9480305,"Opposite Spotlight Rockdale, 370 Princes Hwy, Banksia NSW 2216, Australia"
171,Banksia,2216,Brothers Kebabs,restaurant,4.6,636,151.1414389,-33.9449919,"315 Princes Hwy, Banksia NSW 2216, Australia"
171,Banksia,2216,Megabites Pizza,restaurant,3.3,282,151.1430556,-33.9436111,"266 Princes Hwy, Banksia NSW 2216, Australia"
