suburb_id,suburb,postcode,name,types,rating,user_ratings_total,lng,lat,formatted_address
1,Abbotsbury,2176,Parx Coffee House,cafe,4.5,262,150.8651897,-33.8698547,"2/60-68 Stockdale Cres, Abbotsbury NSW 2176, Australia"
1,Abbotsbury,2176,Cafe Saluti,cafe,4.2,17,150.8765488,-33.8492617,"The Horsley Dr &, Cowpasture Rd, Abbotsbury NSW 2176, Australia"
1,Abbotsbury,2176,Cafe Saluti coffee cart,cafe,0,0,150.8741667,-33.8501659,"1521 The Horsley Dr, Abbotsbury NSW 2176, Australia"
2,Abbotsford,2046,The Cove Dining,cafe,4.1,293,151.1289528,-33.8509528,"378 Great N Rd, Abbotsford NSW 2046, Australia"
2,Abbotsford,2046,Due Passi - Italian Street Food,cafe,4.6,98,151.1280262,-33.8475988,"563 Great N Rd, Abbotsford NSW 2046, Australia"
2,Abbotsford,2046,"Watergrill Restaurant, Abbotsford",cafe,3.8,133,151.1275473,-33.844305,"613 Great N Rd, Abbotsford NSW 2046, Australia"
8,Aberglasslyn,2320,Mckeachies Corner Cafe,cafe,4.5,83,151.5399127,-32.7026203,"8 McKeachie Dr, Aberglasslyn NSW 2320, Australia"
14,Adaminaby,2629,Adaminaby Bank Cafe,cafe,5,1,148.7737953,-35.995883,"18 Denison St, Adaminaby NSW 2629, Australia"
14,Adaminaby,2629,Big Trout Takeaway,cafe,4.6,11,148.774706,-35.99688829999999,"23A Baker St, Adaminaby NSW 2629, Australia"
15,Adamstown,2289,The Barn Adamstown,cafe,4.3,241,151.728586,-32.9310269,"30 Narara Rd, Adamstown NSW 2289, Australia"
15,Adamstown,2289,Pekárna,cafe,4.6,76,151.7257099,-32.935568,"277 Brunker Rd, Adamstown NSW 2289, Australia"
15,Adamstown,2289,Fernleigh Cafe,cafe,4.4,189,151.7167,-32.9388104,"89 Fletcher St, Adamstown NSW 2289, Australia"
15,Adamstown,2289,Goodness Me Organics Grocer and Cafe,cafe,4.3,108,151.7244415,-32.93420030000001,"617/621 Glebe Rd, Adamstown NSW 2289, Australia"
15,Adamstown,2289,Maxi's Caffe,cafe,4.1,24,151.7255202,-32.9349641,"266 Brunker Rd, Adamstown NSW 2289, Australia"
15,Adamstown,2289,Cupcake Espresso,cafe,4.6,103,151.7257936,-32.936117,"293 Brunker Rd, Adamstown NSW 2289, Australia"
15,Adamstown,2289,The Bondwood Cafe,cafe,4.8,35,151.7308815,-32.9348091,"504 Glebe Rd, Adamstown NSW 2289, Australia"
15,Adamstown,2289,Wild Vine Coffee,cafe,5,10,151.718366,-32.9394787,"4/10 William St, Adamstown NSW 2289, Australia"
15,Adamstown,2289,Little Brown Wolf,cafe,4.6,25,151.7256112,-32.9349753,"266 Brunker Rd, Adamstown NSW 2289, Australia"
15,Adamstown,2289,The Ritz Cafe,cafe,3.7,53,151.7258315,-32.9349256,"265 Brunker Rd, Adamstown NSW 2289, Australia"
17,Adelong,2729,Adelong Cafe,cafe,4.4,93,148.0654109,-35.3088293,"49 Tumut St, Adelong NSW 2729, Australia"
24,Albion Park,2527,Blue Jay Cafe,cafe,4.6,313,150.760887,-34.57423,"Shop 1/7 Sophia St, Albion Park NSW 2527, Australia"
24,Albion Park,2527,BackBurner Cafe & Takeaway,cafe,4.6,61,150.7860733,-34.5882614,"175 Ashburton Dr, Albion Park NSW 2527, Australia"
24,Albion Park,2527,Cafe Four,cafe,4.3,64,150.7740984,-34.5711856,"7/151 Tongarra Rd, Albion Park NSW 2527, Australia"
24,Albion Park,2527,Delicious Delights,cafe,4.4,103,150.7741135,-34.5710253,"3/149 Tongarra Rd, Albion Park NSW 2527, Australia"
24,Albion Park,2527,Three Flamingos Espresso,cafe,4.6,189,150.776945,-34.578907,"136 Terry St, Albion Park NSW 2527, Australia"
24,Albion Park,2527,Bean 2 The Valley,cafe,4.7,30,150.765493,-34.571305,"1/220 Tongarra Rd, Albion Park NSW 2527, Australia"
24,Albion Park,2527,Nonno’s Olive Tree Cafe’,cafe,4.4,7,150.7746484,-34.5724179,"Shop 8/60 Terry St, Albion Park NSW 2527, Australia"
24,Albion Park,2527,Niu's Kitchen,cafe,3,31,150.7736376,-34.5710978,"157 Tongarra Rd, Albion Park NSW 2527, Australia"
24,Albion Park,2527,McDonald's Albion Park Rail,cafe,3.4,2120,150.803021,-34.567227,"251 Princes Hwy, Albion Park NSW 2527, Australia"
25,Albion Park Rail,2527,Gourmet Hub,cafe,3.8,14,150.8010794,-34.570945,"10 Ash Ave, Albion Park Rail NSW 2527, Australia"
25,Albion Park Rail,2527,Playmaze for Kids,cafe,4.1,63,150.8159393,-34.5749784,"1/39 Durgadin Dr, Albion Park Rail NSW 2527, Australia"
25,Albion Park Rail,2527,Feast @ The Rail,cafe,0,0,150.8164653,-34.5749638,"3/33-37 Durgadin Dr, Albion Park Rail NSW 2527, Australia"
25,Albion Park Rail,2527,ZONE BOWLING Illawarra,cafe,4.1,234,150.7893066,-34.5520286,"47 Princes Hwy, Albion Park Rail NSW 2527, Australia"
26,Albury,2640,Clancy's Food Store,cafe,4.4,43,146.9122572,-36.0825097,"591 Smollett St, Albury NSW 2640, Australia"
26,Albury,2640,Mr. Benedict,cafe,4.6,486,146.9116578,-36.08004,"664 Dean St, Albury NSW 2640, Australia"
26,Albury,2640,Retro Lane Cafe,cafe,4.1,54,146.9160463,-36.0796178,"QEII Square, 525 Swift St, Albury NSW 2640, Australia"
26,Albury,2640,Brick Lane,cafe,4.3,300,146.9193644,-36.0812737,"479A Dean St, Albury NSW 2640, Australia"
26,Albury,2640,As Thick As Thieves,cafe,4.6,125,146.9218847,-36.0817625,"441 Dean St, Albury NSW 2640, Australia"
26,Albury,2640,Charlies Cafe on Kiewa,cafe,3.3,3,146.9157361,-36.07803639999999,"549 Kiewa St, Albury NSW 2640, Australia"
26,Albury,2640,Urban Fresh Cafe,cafe,4,100,146.9142154,-36.081643,"West End Plaza, 22/487 Kiewa St, Albury NSW 2640, Australia"
26,Albury,2640,Canvas Eatery,cafe,4.2,183,146.916783,-36.080521,"546 Dean St, Albury NSW 2640, Australia"
26,Albury,2640,Piccolo Pod coffee.,cafe,4.5,34,146.9151709,-36.0788647,"550 Stanley St, Albury NSW 2640, Australia"
26,Albury,2640,Timber,cafe,4.2,81,146.919597,-36.080646,"480, 1 Ritz Arcade, Dean St, Albury NSW 2640, Australia"
26,Albury,2640,Reflections Cafe,cafe,0,0,146.9138899,-36.0796606,"618 Dean St, Albury NSW 2640, Australia"
26,Albury,2640,Cafe Dalchini,cafe,4.8,125,146.9212364,-36.0816268,"451 Dean St, Albury NSW 2640, Australia"
26,Albury,2640,Two Fingers Bar & Barbershop,cafe,4.6,39,146.9205799,-36.08325,"464 Smollett St, Albury NSW 2640, Australia"
26,Albury,2640,Café Miguel,cafe,4.7,3,146.917868,-36.07455,"523 Guinea St, Albury NSW 2640, Australia"
26,Albury,2640,The Food Mill,cafe,4.8,44,146.9241881,-36.07722140000001,"424A Wilson St, Albury NSW 2640, Australia"
26,Albury,2640,The Circuit Sports Cafe Albury,cafe,4.7,105,146.9125991,-36.0804497,"639B Dean St, Albury NSW 2640, Australia"
26,Albury,2640,Beechworth Bakery Albury,cafe,3.9,138,146.9200681,-36.0797107,"Myer Centrepoint Swift Street &, David St, Albury NSW 2640, Australia"
26,Albury,2640,Cocoa Collective,cafe,4.7,3,146.921354,-36.080202,"524 David St, Albury NSW 2640, Australia"
26,Albury,2640,Jamaica Blue Albury,cafe,3.9,61,146.9196735,-36.0804823,"25/525 David St, Albury NSW 2640, Australia"
26,Albury,2640,Zo'i espresso Coffee Roasters,cafe,4.6,47,146.9220109,-36.08128689999999,"444 Dean St, Albury NSW 2640, Australia"
26,Albury,2640,Willow & Co,cafe,4.5,77,146.914297,-36.0806769,"603 Dean St, Albury NSW 2640, Australia"
26,Albury,2640,Early Bird Cafe,cafe,4.3,159,146.9166221,-36.0809322,"1/553 Dean St, Albury NSW 2640, Australia"
26,Albury,2640,Cafe Musette,cafe,4.4,211,146.9238583,-36.0836278,"2/480 Young St, Albury NSW 2640, Australia"
26,Albury,2640,Citi Cafe,cafe,4.6,124,146.9184378,-36.0807499,"504 Olive St, Albury NSW 2640, Australia"
26,Albury,2640,Green Zebra,cafe,4.2,176,146.919312,-36.0809636,"484 Dean St, Albury NSW 2640, Australia"
26,Albury,2640,Coffee Mamma,cafe,4.7,32,146.9179033,-36.0814228,"facing Olive, 5/501 Dean St, Albury NSW 2640, Australia"
26,Albury,2640,The Coffee Club Café - Albury,cafe,3.5,142,146.9173879,-36.0810525,"1/519-525 Dean St, Albury NSW 2640, Australia"
26,Albury,2640,The Proprietor,cafe,4.5,394,146.9125341,-36.08260569999999,"459 Townsend St, Albury NSW 2640, Australia"
26,Albury,2640,Pemberton Pantry,cafe,4.5,89,146.9065954,-36.0753454,"696 Pemberton St, Albury NSW 2640, Australia"
26,Albury,2640,Guru's Star Cafe and Restaurant,cafe,4.5,217,146.9215287,-36.0815991,"1/449A Dean St, Albury NSW 2640, Australia"
26,Albury,2640,Dash Espresso Bar,cafe,4.7,10,146.9163892,-36.0812427,"Shop/3 Amp Ln, Albury NSW 2640, Australia"
26,Albury,2640,Hudsons Coffee,cafe,4,107,146.91908,-36.0802,"Centrepoint Arcade, shop 1/526 Olive St, Albury NSW 2640, Australia"
26,Albury,2640,Street Bean,cafe,4.7,38,146.9228359,-36.0784792,"556 Macauley St, Albury NSW 2640, Australia"
26,Albury,2640,The Hyve Bar,cafe,5,4,146.9172008,-36.0827049,"2/510 Smollett St, Albury NSW 2640, Australia"
26,Albury,2640,The Elms cafe,cafe,4.5,32,146.9154064,-36.0800362,"2/515 Kiewa St, Albury NSW 2640, Australia"
26,Albury,2640,Muffin Break Albury,cafe,3.2,31,146.9147268,-36.0815848,"487 Kiewa St, Albury NSW 2640, Australia"
26,Albury,2640,David Street Store,cafe,4.6,31,146.9215389,-36.0731059,"659 David St, Albury NSW 2640, Australia"
26,Albury,2640,The Cake Cottage Albury,cafe,5,2,146.9229454,-36.078605,"1/556 Macauley St, Albury NSW 2640, Australia"
26,Albury,2640,McDonald's Albury,cafe,3.2,1043,146.9129686,-36.0843165,"Cnr Townsend &, Hume St, Albury NSW 2640, Australia"
26,Albury,2640,Brew Cart,cafe,5,8,146.947434,-36.0743361,"691 Drome St, Albury NSW 2640, Australia"
26,Albury,2640,Cafe Nine97,cafe,4.4,20,146.8911336,-36.0738612,"4/997 Pemberton St, Albury NSW 2640, Australia"
26,Albury,2640,modern boba,cafe,4.9,36,146.9173322,-36.0813928,"shop 10/519-525 Dean St, Albury NSW 2640, Australia"
26,Albury,2640,Truly Free Bakehouse,cafe,4.7,80,146.9316472,-36.0612623,"4/919 Mate St, Albury NSW 2641, Australia"
26,Albury,2640,Blackwells Eatery waffles and crepes,cafe,4.9,12,146.9173184,-36.081256,"Shop 6 city walk arcade, Albury NSW 2640, Australia"
29,Alexandria,2015,Mecca Coffee - Alexandria,cafe,4.2,324,151.19999,-33.906565,"26 Bourke Rd, Alexandria NSW 2015, Australia"
29,Alexandria,2015,Sub-Station Cafe Alexandria,cafe,4.5,373,151.1955167,-33.9031765,"124 McEvoy St, Alexandria NSW 2015, Australia"
29,Alexandria,2015,Two Tales Cafe,cafe,4.5,155,151.1985205,-33.9008735,"11-15 Power Street, Alexandria NSW 2015, Australia"
29,Alexandria,2015,The Coffee Roaster,cafe,4.7,208,151.2023916,-33.9096693,"380 Botany Rd, Alexandria NSW 2015, Australia"
29,Alexandria,2015,Huntley's Coffee Shop,cafe,3.6,22,151.1932766,-33.910156,"4 Huntley St, Alexandria NSW 2015, Australia"
29,Alexandria,2015,COOH Bourke Road Alexandria,cafe,4.3,1243,151.1955222,-33.9106044,"90-96 Bourke Rd, Alexandria NSW 2015, Australia"
29,Alexandria,2015,Bourke Street Bakery,cafe,4.4,683,151.1937099,-33.9209029,"472-474 Gardeners Rd, Alexandria NSW 2015, Australia"
29,Alexandria,2015,L’Americano Espresso Bar,cafe,4.6,112,151.198806,-33.910566,"34 O'Riordan St, Alexandria NSW 2015, Australia"
29,Alexandria,2015,Meet Gerard,cafe,4.6,318,151.1968129,-33.89747130000001,"54 Henderson Rd, Alexandria NSW 2015, Australia"
29,Alexandria,2015,The Grounds of Alexandria,cafe,4.1,2971,151.1941376,-33.9106777,"7a/2 Huntley St, Alexandria NSW 2015, Australia"
29,Alexandria,2015,Fountain Cafe,cafe,4.2,233,151.1952882,-33.9020287,"G1/21 Fountain St, Alexandria NSW 2015, Australia"
29,Alexandria,2015,Krunch Cafe & Catering,cafe,4.2,19,151.1940503,-33.9177923,"84 O'Riordan St, Alexandria NSW 2015, Australia"
29,Alexandria,2015,Cafe 56,cafe,4,1,151.196207,-33.9140329,"56 O'Riordan St, Alexandria NSW 2015, Australia"
29,Alexandria,2015,Eat me! Espresso bar,cafe,4.4,42,151.1953491,-33.9159665,"103/39 Doody St, Alexandria NSW 2015, Australia"
29,Alexandria,2015,Cafe 0.6,cafe,4.5,232,151.1957604,-33.9043783,"1a/11 Bowden St, Alexandria NSW 2015, Australia"
29,Alexandria,2015,Astori's Cafe,cafe,3.4,22,151.1901195,-33.9168893,"182 Bourke Rd, Alexandria NSW 2015, Australia"
29,Alexandria,2015,La Cachette Cafe,cafe,4.1,185,151.189995,-33.904757,"270 Mitchell Rd, Alexandria NSW 2015, Australia"
29,Alexandria,2015,Copper Rose Cafe,cafe,4.3,57,151.1877583,-33.9197722,"15/85 Bourke Rd, Alexandria NSW 2015, Australia"
29,Alexandria,2015,D'Vine Licensed Cafe,cafe,4.6,89,151.1997837,-33.9144021,"7/1 Ralph St, Alexandria NSW 2015, Australia"
29,Alexandria,2015,The Copper Mill,cafe,4.4,414,151.1886398,-33.9062266,"338-356 Mitchell Rd, Alexandria NSW 2015, Australia"
29,Alexandria,2015,Brunch & Co,cafe,4,122,151.1946846,-33.8994971,"34 Mitchell Rd, Alexandria NSW 2015, Australia"
29,Alexandria,2015,Went To See The Gypsy | Alexandria,cafe,4.2,203,151.1934379,-33.9008109,"76 Mitchell Rd, Alexandria NSW 2015, Australia"
29,Alexandria,2015,Cafe 101,cafe,3.1,96,151.194915,-33.91385,"49-59 O'Riordan St, Alexandria NSW 2015, Australia"
29,Alexandria,2015,Coffee Creative,cafe,5,252,151.1924985,-33.9014843,"133 Mitchell Rd, Alexandria NSW 2015, Australia"
29,Alexandria,2015,Crave Coffee Cafe,cafe,4.4,49,151.1922567,-33.9066107,"u71/28-20 Maddox St, Alexandria NSW 2015, Australia"
29,Alexandria,2015,Cafe Without A Name,cafe,4.7,41,151.198944,-33.903375,"50 McCauley St, Alexandria NSW 2015, Australia"
29,Alexandria,2015,Cafe Isar,cafe,4.1,8,151.1998108,-33.9143456,"7/1 Ralph St, Alexandria NSW 2015, Australia"
29,Alexandria,2015,Sonoma,cafe,4.3,479,151.1952826,-33.9203751,"32 Birmingham St, Alexandria NSW 2015, Australia"
29,Alexandria,2015,Loveat Cafe,cafe,4,90,151.1924826,-33.9146517,"65 Doody St, Alexandria NSW 2015, Australia"
29,Alexandria,2015,Cynthias Cafe,cafe,3.9,35,151.1919467,-33.9087505,"25/45 Huntley St, Alexandria NSW 2015, Australia"
29,Alexandria,2015,Bread & Circus,cafe,4,503,151.1954983,-33.9021436,"21 Fountain St, Alexandria NSW 2015, Australia"
29,Alexandria,2015,168 Euston Café,cafe,4.4,21,151.1864116,-33.9131937,"1/168 Euston Rd, Alexandria NSW 2015, Australia"
29,Alexandria,2015,Textbook Boulangerie Patisserie,cafe,3.8,288,151.20185,-33.903216,"274 Botany Rd, Alexandria NSW 2015, Australia"
29,Alexandria,2015,Nutrition Station Alexandria,cafe,4.2,91,151.2004202,-33.9147485,"Shop 3/540 Botany Rd, Alexandria NSW 2015, Australia"
29,Alexandria,2015,Weighbridge Cafe,cafe,4.5,24,151.1972709,-33.9079612,"33 Bourke Rd, Alexandria NSW 2015, Australia"
29,Alexandria,2015,Saeco,cafe,0,0,151.1932551,-33.9102849,"4 Huntley St, Alexandria NSW 2015, Australia"
29,Alexandria,2015,Bitton Cafe and Restaurant,cafe,4.5,638,151.1904548,-33.9003856,"36/37A Copeland St, Alexandria NSW 2015, Australia"
29,Alexandria,2015,The Pommery Cafe Alexandria,cafe,4.1,92,151.1984139,-33.9173477,"24A Ralph St, Alexandria NSW 2015, Australia"
29,Alexandria,2015,The Grumpy Barista,cafe,4.4,201,151.1976846,-33.8972107,"34 Henderson Rd, Alexandria NSW 2015, Australia"
29,Alexandria,2015,Blend 66,cafe,0,0,151.1999136,-33.9080682,"17 O'Riordan St, Alexandria NSW 2015, Australia"
34,Allambie Heights,2100,La Boca Cafe,cafe,4.4,79,151.2629049,-33.7759247,"2/33-35 Kentwell Rd, Allambie Heights NSW 2100, Australia"
34,Allambie Heights,2100,La Crema Lounge,cafe,4.8,31,151.2506245,-33.7658816,"12/141 Allambie Rd, Allambie Heights NSW 2100, Australia"
34,Allambie Heights,2100,Mr. Grigor's,cafe,4.5,125,151.250561,-33.766275,"19 Grigor Pl, Allambie Heights NSW 2100, Australia"
34,Allambie Heights,2100,Cafe Girasoli,cafe,4.8,16,151.2502732,-33.7655541,"Shop 3/141-151 Allambie Rd, Allambie Heights NSW 2100, Australia"
36,Allawah,2218,The Coffee House Allawah,cafe,4.4,79,151.1157328,-33.9702394,"444 Railway Parade, Allawah NSW 2218, Australia"
44,Alstonville,2477,ESP Espresso Bar,cafe,4.6,44,153.4393971,-28.8408017,"1a/76 Main St, Alstonville NSW 2477, Australia"
44,Alstonville,2477,Nat’s Coffee,cafe,4.7,66,153.4232718,-28.8361846,"29 Kays Ln, Alstonville NSW 2477, Australia"
44,Alstonville,2477,Options In Alstonville,cafe,4.4,39,153.4391872,-28.841191,"75 Main St, Alstonville NSW 2477, Australia"
44,Alstonville,2477,Cafe 86 on main,cafe,4.3,142,153.4399476,-28.8414234,"86 Main St, Alstonville NSW 2477, Australia"
44,Alstonville,2477,The Crossing Cafe,cafe,4.6,47,153.4396736,-28.8417805,"83 Main St, Alstonville NSW 2477, Australia"
44,Alstonville,2477,Orio Cafe Patisserie Bar,cafe,4.1,128,153.4402621,-28.8429586,"23/89 Main St, Alstonville NSW 2477, Australia"
47,Ambarvale,2560,Gloria Jean's Coffees Ambarvale,cafe,3.7,100,150.797778,-34.075149,"KL003 L01, Gilchrist Dr, Ambarvale NSW 2560, Australia"
47,Ambarvale,2560,Coco Cubano Macarthur Square,cafe,3.6,487,150.7976067,-34.074036,"C34A Gilchrist Dr, Ambarvale NSW 2560, Australia"
57,Anna Bay,2316,Rubi Blue Cafe-Restaurant,cafe,4.2,89,152.0825031,-32.7780763,"1/118 Gan Gan Rd, Anna Bay NSW 2316, Australia"
57,Anna Bay,2316,Crest Birubi Beach,cafe,4.2,651,152.0755613,-32.7833825,"73 James Paterson St, Anna Bay NSW 2316, Australia"
57,Anna Bay,2316,LJ's Cafe,cafe,4.3,194,152.085403,-32.777888,"2/150 Gan Gan Rd, Anna Bay NSW 2316, Australia"
57,Anna Bay,2316,The Kiosk,cafe,3.8,12,152.0755981,-32.7833016,"73 James Paterson St, Anna Bay NSW 2316, Australia"
58,Annandale,2038,Revolver Cafe,cafe,4.4,604,151.1718056,-33.8758278,"291 Annandale St, Annandale NSW 2038, Australia"
58,Annandale,2038,Bar Sirocco Cafe,cafe,4.4,99,151.1715272,-33.8818067,"62 Booth St, Annandale NSW 2038, Australia"
58,Annandale,2038,The Drop Espresso & Juice Bar,cafe,4.6,107,151.1733333,-33.8825,"14 Booth St, Annandale NSW 2038, Australia"
58,Annandale,2038,Black Toast Cafe,cafe,4.4,373,151.1732828,-33.8821913,"43 Booth St, Annandale NSW 2038, Australia"
58,Annandale,2038,Cafe Claire,cafe,4.3,197,151.1648902,-33.8877182,"Shop 3/2 Young St, Annandale NSW 2038, Australia"
58,Annandale,2038,Cherry Moon General Store,cafe,4.2,171,151.1726697,-33.8847324,"77 Nelson St, Annandale NSW 2038, Australia"
58,Annandale,2038,Stoneground Bakery,cafe,4.5,105,151.1734002,-33.8822384,"1/39 Booth St, Annandale NSW 2038, Australia"
58,Annandale,2038,The Cafe Sienna,cafe,4.1,87,151.1678351,-33.884828,"61 Annandale St, Annandale NSW 2038, Australia"
58,Annandale,2038,Rechargin Cafe & Burger,cafe,4.5,15,151.167548,-33.88751,"10 Johnston St, Annandale NSW 2038, Australia"
58,Annandale,2038,Le Comptoir,cafe,4.2,32,151.171058,-33.881321,"109 Johnston St, Annandale NSW 2038, Australia"
58,Annandale,2038,Nelson's Nest,cafe,4.8,113,151.171221,-33.887063,"C1/6 Nelson St, Annandale NSW 2038, Australia"
58,Annandale,2038,Bad Habits Annandale,cafe,4.4,308,151.1701771,-33.8832557,"1/63 Johnston St, Annandale NSW 2038, Australia"
58,Annandale,2038,Trafalgar St Espresso,cafe,4.6,203,151.169739,-33.886845,"18 Trafalgar St, Annandale NSW 2038, Australia"
58,Annandale,2038,Cornersmith,cafe,4.2,374,151.1724679,-33.8789986,"88 View St, Annandale NSW 2038, Australia"
58,Annandale,2038,Fez & Co,cafe,4.7,270,151.1750454,-33.8830865,"4 Booth St, Annandale NSW 2038, Australia"
59,Annangrove,2156,Vanilla Cream Cafe,cafe,4.5,120,150.9393157,-33.6554985,"Amaroo Park, 233 Annangrove Rd, Annangrove NSW 2156, Australia"
59,Annangrove,2156,Vespas cafe and catering,cafe,0,0,150.9562552,-33.6710816,"169 Annangrove Rd, Annangrove NSW 2156, Australia"
60,Appin,2560,Gather Coffee House.,cafe,4.8,51,150.7873121,-34.2005585,"1/75 Appin Rd, Appin NSW 2560, Australia"
60,Appin,2560,Red Delicious & Co Cafe' Thai Restaurant,cafe,4.9,47,150.7880582,-34.2007829,"1/74 Appin Rd, Appin NSW 2560, Australia"
66,Arakoon,2431,Smoky cape cafe and spaghetti house,cafe,4.7,46,153.0587391,-30.9064238,"1 Cockatoo Pl, Arakoon NSW 2431, Australia"
69,Arcadia,2159,Andy's Cafe Takeaway,cafe,4.4,8,151.037716,-33.626217,"91 Arcadia Rd, Arcadia NSW 2159, Australia"
73,Ardlethan,2665,Ariah 62 Coffee Shop,cafe,4.5,25,146.9026269,-34.3577277,"62 Ariah St, Ardlethan NSW 2665, Australia"
73,Ardlethan,2665,Ardlethan Newsagency and Coffee Shop,cafe,2.5,4,146.9018731,-34.3572968,"38/42-44 Ariah St, Ardlethan NSW 2665, Australia"
75,Argenton,2284,Millers Pie & Sandwich Bar – Argenton,cafe,5,1,151.6328268,-32.9337781,"416 Lake Rd, Argenton NSW 2307, Australia"
79,Ariah Park,2665,White Rose Cafe (Ariah Park Cafe),cafe,4.5,20,147.2215306,-34.3472105,"65 Coolamon St, Ariah Park NSW 2665, Australia"
83,Armidale,2350,Piknic Portable Feasts,cafe,4,4,151.6686935,-30.51395639999999,"4/117 Beardy St, Armidale NSW 2350, Australia"
83,Armidale,2350,Altitude Coffee Roastery,cafe,4.7,41,151.665072,-30.513747,"shop 14/108 Dangar St, Armidale NSW 2350, Australia"
83,Armidale,2350,Courthouse Coffee,cafe,4.5,69,151.666698,-30.5137758,"160 Beardy St, Armidale NSW 2350, Australia"
83,Armidale,2350,Goldfish Bowl Bakery,cafe,4.5,433,151.6629222,-30.5141889,"3/160 Rusden St, Armidale NSW 2350, Australia"
83,Armidale,2350,Daily Ritual,cafe,4.3,18,151.6653039,-30.5129222,"Shop 52, Armidale Plaza, Beardy St, Armidale NSW 2350, Australia"
83,Armidale,2350,Seesaw Coffee,cafe,4.6,121,151.6664188,-30.5154369,"Armidale NSW 2350, Australia"
83,Armidale,2350,Cafe Patisserie,cafe,4.8,115,151.6712788,-30.5164291,"80 Rusden St, Armidale NSW 2350, Australia"
83,Armidale,2350,Crossword Cafe,cafe,4.4,69,151.6565704,-30.5123424,"226 Rusden St, Armidale NSW 2350, Australia"
83,Armidale,2350,NERAM Cafe,cafe,2.8,8,151.6648806,-30.5253566,"106 Kentucky St, Armidale NSW 2350, Australia"
83,Armidale,2350,Westside Espresso,cafe,4.6,80,151.6506431,-30.5037734,"Harvey Norman Centre, 9 Queen Elizabeth Dr, Armidale NSW 2350, Australia"
83,Armidale,2350,Ellys Coffee Lounge,cafe,4.2,49,151.6637315,-30.5114618,"100 Jessie St, Armidale NSW 2350, Australia"
83,Armidale,2350,Era Espresso,cafe,4.3,85,151.6637514,-30.5129566,"230 Beardy St, Armidale NSW 2350, Australia"
83,Armidale,2350,Armidale Coffee House,cafe,3.5,10,151.6646534,-30.5122478,"Shop 20/197 Beardy St, Armidale NSW 2350, Australia"
83,Armidale,2350,CAFFIENDS in the mall,cafe,4.5,119,151.6656596,-30.5133834,"190 Beardy St, Armidale NSW 2350, Australia"
83,Armidale,2350,Easy As Drive thru coffee Armidale,cafe,4.3,15,151.670092,-30.515674,"97 Rusden St, Armidale NSW 2350, Australia"
83,Armidale,2350,Fresh @110,cafe,4.6,40,151.6650266,-30.5140616,"110 Dangar St, Armidale NSW 2350, Australia"
83,Armidale,2350,The Fat Hare,cafe,3.7,59,151.6663179,-30.5128502,"24 Moore St, Armidale NSW 2350, Australia"
83,Armidale,2350,Fat Goose Crossing,cafe,3.9,153,151.6651993,-30.5129649,"195 Beardy St, Armidale NSW 2350, Australia"
83,Armidale,2350,Bistro on Cinders,cafe,4.5,47,151.6671384,-30.5140619,"14 Cinders Ln, Armidale NSW 2350, Australia"
83,Armidale,2350,Pearl Perch Takeaway,cafe,4.2,60,151.6628695,-30.5116437,"102 Jessie St, Armidale NSW 2350, Australia"
83,Armidale,2350,Paper Tiger,cafe,4.5,86,151.6665903,-30.5129384,"14 Moore St, Armidale NSW 2350, Australia"
83,Armidale,2350,Runway 05 Cafe and Bar,cafe,4.5,4,151.6106751,-30.5314722,"9 Peter Monley Drive, Armidale NSW 2350, Australia"
83,Armidale,2350,Echidna Cafe,cafe,4.3,3,151.6660546,-30.5255653,"128 Kentucky St, Armidale NSW 2350, Australia"
83,Armidale,2350,The Peach Blossom Cafe,cafe,4.5,2,151.665262,-30.51239499999999,"Corner Beardy and Dangar Street Armidale Plaza, Armidale NSW 2350, Australia"
83,Armidale,2350,Luniva MoMo Cafe Restaurant,cafe,4.7,18,151.6687194,-30.5145525,"Shop1/110 Marsh St, Armidale NSW 2350, Australia"
83,Armidale,2350,McDonald's Armidale,cafe,3.4,734,151.6689056,-30.5165378,"131 Marsh St, Armidale NSW 2350, Australia"
83,Armidale,2350,Armidale Central,cafe,4.1,956,151.6634449,-30.512426,"225 Beardy St, Armidale NSW 2350, Australia"
83,Armidale,2350,Cafe Life,cafe,3.9,13,151.6443434,-30.4861764,"Building C18 University of New England, Armidale NSW 2351, Australia"
83,Armidale,2350,THE SOCIAL SALAD CO.,cafe,4.5,4,151.666294,-30.5130849,"167 Beardy St, Armidale NSW 2350, Australia"
83,Armidale,2350,Armidale City Bowling Club,cafe,4.2,241,151.6708154,-30.5135326,"92-96 Dumaresq St, Armidale NSW 2350, Australia"
83,Armidale,2350,The Magnolia Cafe,cafe,5,2,151.6707554,-30.5143095,"93 Beardy St, Armidale NSW 2350, Australia"
83,Armidale,2350,The Hideout Cafe,cafe,3,2,151.6486494,-30.5131258,"9/140 Miller St, Armidale NSW 2350, Australia"
83,Armidale,2350,Grab 'N' Gobble Take Away (Armidale ),cafe,4.3,13,151.6479968,-30.5149955,"156 Miller St, Armidale NSW 2350, Australia"
83,Armidale,2350,Rendezvous Eat In and Take Away,cafe,5,3,151.6682899,-30.5130529,"Shop 13, Armidale Food Emporium, 90-94 Marsh St, Armidale NSW 2350, Australia"
83,Armidale,2350,Laneway Cafe Armidale,cafe,5,8,151.6663063,-30.5130986,"Shop 5/165/167 Beardy St, Armidale NSW 2350, Australia"
83,Armidale,2350,Rendezvous Eat In and Take Away Cafe Armidale,cafe,0,0,151.6687566,-30.5128731,"90 Marsh St, Armidale NSW 2350, Australia"
85,Arncliffe,2205,Bean 2 Taste,cafe,4.4,52,151.147417,-33.933573,"19/13-15 Wollongong Rd, Arncliffe NSW 2205, Australia"
85,Arncliffe,2205,Espresso Haus Co.,cafe,4.5,113,151.1451309,-33.9348513,"51 Wollongong Rd, Arncliffe NSW 2205, Australia"
85,Arncliffe,2205,Cliff Cafe,cafe,4.2,33,151.1464835,-33.9369232,"25 Firth St, Arncliffe NSW 2205, Australia"
85,Arncliffe,2205,Little Spoon,cafe,3.9,39,151.1495477,-33.9373488,"108 Princes Hwy, Arncliffe NSW 2205, Australia"
85,Arncliffe,2205,Cafe,cafe,0,0,151.145162,-33.934781,"49A Wollongong Rd, Arncliffe NSW 2205, Australia"
86,Arndell Park,2148,Cafe 26 Arndell Park,cafe,4.5,49,150.881952,-33.7889021,"1/26 Holbeche Rd, Arndell Park NSW 2148, Australia"
86,Arndell Park,2148,Food Heaven,cafe,4.5,22,150.8890327,-33.7891774,"6a/69 Holbeche Rd, Arndell Park NSW 2148, Australia"
86,Arndell Park,2148,Sports Cafe,cafe,4,3,150.8963048,-33.7943331,"170 Reservoir Rd, Arndell Park NSW 2148, Australia"
86,Arndell Park,2148,Origin Coffees,cafe,0,0,150.8760909,-33.7883845,"10 Holbeche Rd, Arndell Park NSW 2148, Australia"
86,Arndell Park,2148,Cafe Lavita,cafe,4.4,13,150.8766725,-33.7882079,"U1/12 Holbeche Rd, Arndell Park NSW 2148, Australia"
86,Arndell Park,2148,The brew and grill,cafe,4.6,31,150.8838139,-33.7891434,"36 Holbeche Rd, Arndell Park NSW 2148, Australia"
86,Arndell Park,2148,Industrial Grind Cafe,cafe,4.3,22,150.8894238,-33.78907290000001,"Shop 1/69 Holbeche Rd, Arndell Park NSW 2148, Australia"
87,Arrawarra,2456,Flamingos Darlington Beach Holiday Park,cafe,4,41,153.188009,-30.048923,"2564 Solitary Islands Way, Arrawarra NSW 2456, Australia"
89,Artarmon,2064,Food at SbS,cafe,3.6,71,151.1900961,-33.8164262,"14 Herbert St, Artarmon NSW 2064, Australia"
89,Artarmon,2064,Zucchero Caffe Bar,cafe,4.9,194,151.1840613,-33.8085805,"104 Hampden Rd, Artarmon NSW 2064, Australia"
89,Artarmon,2064,Salvage Specialty Coffee,cafe,4.4,424,151.1848228,-33.808107,"5 Wilkes Ave, Artarmon NSW 2064, Australia"
89,Artarmon,2064,Coffee Pump,cafe,4.4,46,151.1869444,-33.8172222,"23/2-8 Campbell St, Artarmon NSW 2064, Australia"
89,Artarmon,2064,Brickworks Cafe,cafe,4.6,92,151.183151,-33.81613000000001,"2/53 Dickson Ave, Artarmon NSW 2064, Australia"
89,Artarmon,2064,Forsyth Coffee & Tea Roastery,cafe,3.7,9,151.1872428,-33.8144917,"1/2-6 Waltham St, Artarmon NSW 2064, Australia"
89,Artarmon,2064,Woodpecker Coffee Co,cafe,4.4,69,151.1855127,-33.8151164,"1/17 Dickson Ave, Artarmon NSW 2064, Australia"
89,Artarmon,2064,Industry Cafe,cafe,5,6,151.1800419,-33.8165651,"9/87-89 Whiting St, Artarmon NSW 2064, Australia"
89,Artarmon,2064,L'Annam,cafe,3.8,122,151.1851925,-33.8093261,"68 Hampden Rd, Artarmon NSW 2064, Australia"
89,Artarmon,2064,Hampden 86,cafe,4.6,164,151.1847406,-33.8089954,"86 Hampden Rd, Artarmon NSW 2064, Australia"
89,Artarmon,2064,SCG Cafe,cafe,4.7,29,151.1915375,-33.814668,"8 Cleg St, Artarmon NSW 2064, Australia"
89,Artarmon,2064,Everyday Canteen,cafe,4.7,243,151.185239,-33.807798,"11 Elizabeth St, Artarmon NSW 2064, Australia"
89,Artarmon,2064,Quince Cafe,cafe,2.7,87,151.1887152,-33.8170599,"G13/1 Frederick St, Artarmon NSW 2064, Australia"
89,Artarmon,2064,Cremastar Coffee,cafe,0,0,151.1910871,-33.814848,"18-20 Cleg St, Artarmon NSW 2064, Australia"
89,Artarmon,2064,Artarmon Deli,cafe,3.6,26,151.1842433,-33.8171347,"6 Carlotta St, Artarmon NSW 2064, Australia"
89,Artarmon,2064,Xenos Gourmet Food,cafe,4.3,9,151.1828977,-33.8149321,"37 Whiting St, Artarmon NSW 2064, Australia"
89,Artarmon,2064,Feed Ya Face,cafe,3.8,21,151.184109,-33.8160435,"6/44 Dickson Ave, Artarmon NSW 2064, Australia"
89,Artarmon,2064,Popo Cafe,cafe,4.7,3,151.1764197,-33.8130423,"shop 1/407 Pacific Hwy, Artarmon NSW 2064, Australia"
92,Ashbury,2193,First Street Pantry,cafe,4.8,121,151.1190086,-33.9029693,"66 First St, Ashbury NSW 2193, Australia"
92,Ashbury,2193,3 Tomatoes,cafe,4.6,112,151.1248512,-33.895959,"121 Holden St, Ashbury NSW 2193, Australia"
97,Ashfield,2131,Ad’s Cafe,cafe,3.2,5,151.1261628,-33.8873558,"7 Station St, Ashfield NSW 2131, Australia"
97,Ashfield,2131,85 Degrees Bakery,cafe,2.1,9,151.1233143,-33.88906550000001,"260A Liverpool Rd, Ashfield NSW 2131, Australia"
97,Ashfield,2131,Gong Cha Ashfield,cafe,3.1,51,151.1254855,-33.8882968,"18 Hercules St, Ashfield NSW 2131, Australia"
97,Ashfield,2131,Chatime Ashfield,cafe,4.2,49,151.1247231,-33.8888676,"Shop 2/250 Liverpool Rd, Ashfield NSW 2131, Australia"
97,Ashfield,2131,OUTFIELD,cafe,4.4,138,151.129465,-33.9033219,"Yeo Park, 230 Victoria St, Ashfield NSW 2131, Australia"
97,Ashfield,2131,PANNTEA盼茶,cafe,4.7,28,151.1252359,-33.8887645,"Shop 4/34-42 Hercules St, Ashfield NSW 2131, Australia"
97,Ashfield,2131,ACE - Vietnamese Rolls and Bowls,cafe,4.5,114,151.1253233,-33.8892823,"222 Liverpool Rd, Ashfield NSW 2131, Australia"
97,Ashfield,2131,The Urban Artisans,cafe,4.1,443,151.1241649,-33.8885403,"Ashfield Mall, Shop F1/260A Liverpool Rd, Ashfield NSW 2131, Australia"
97,Ashfield,2131,Daily Brew Espresso,cafe,4.4,17,151.125605,-33.889123,"223-239 Liverpool Rd, Ashfield NSW 2131, Australia"
97,Ashfield,2131,Excelsior Jones,cafe,4.3,571,151.1270774,-33.9000548,"139A Queen St, Ashfield NSW 2131, Australia"
97,Ashfield,2131,Cafe on Charlotte,cafe,3.8,44,151.1257169,-33.887145,"1 Charlotte St, Ashfield NSW 2131, Australia"
97,Ashfield,2131,Gloria Jean's Coffees Ashfield,cafe,2.8,62,151.1242865,-33.8889231,"4/260 Liverpool Rd, Ashfield NSW 2131, Australia"
97,Ashfield,2131,Cherry Beans Coffee,cafe,3.4,70,151.1237994,-33.8893052,"Ashifield Shopping Mall, Shop 4/260A Liverpool Rd, Ashfield NSW 2131, Australia"
97,Ashfield,2131,Normcore Coffee Ashfield,cafe,4.7,72,151.1251528,-33.8878111,"14 Brown St, Ashfield NSW 2131, Australia"
97,Ashfield,2131,Bellissimo Pizza & Pasta Cafe,cafe,4.3,32,151.1268176,-33.889962,"184 Liverpool Rd, Ashfield NSW 2131, Australia"
97,Ashfield,2131,Koku Culture,cafe,4.7,218,151.1221988,-33.8873706,"1/355 Liverpool Rd, Ashfield NSW 2131, Australia"
97,Ashfield,2131,Pete's Artisan Bread and Cafe,cafe,4.7,15,151.1247861,-33.8888577,"Shop 3/250 Liverpool Rd, Ashfield NSW 2131, Australia"
97,Ashfield,2131,Michel's Ashfield,cafe,3.8,32,151.1245917,-33.8897443,"Kiosk 6, Ashfield Mall, 260A Liverpool Rd, Ashfield NSW 2131, Australia"
97,Ashfield,2131,Café d'amour,cafe,4.7,58,151.1264887,-33.888937,"shop 49/1 Brown St, Ashfield NSW 2131, Australia"
97,Ashfield,2131,Krema Bar,cafe,3.3,21,151.1235926,-33.8893043,"260A Liverpool Rd, Ashfield NSW 2131, Australia"
97,Ashfield,2131,Ashfield Apothecary,cafe,5,78,151.1260591,-33.8865845,"19 Charlotte St, Ashfield NSW 2131, Australia"
97,Ashfield,2131,High Street Cafe,cafe,4,1,151.1255424,-33.8952963,"31 Clissold St, Ashfield NSW 2131, Australia"
97,Ashfield,2131,The Cafe at Wests Ashfield Club,cafe,2.9,9,151.1307347,-33.8894793,"115 Liverpool Rd, Sydney NSW 2131, Australia"
100,Ashmont,2650,"The Little Cup Cafe, Ashmont",cafe,0,0,147.3300499,-35.12579059999999,"shop 9/51-53 Tobruk St, Ashmont NSW 2650, Australia"
101,Ashtonfield,2323,Heritage Gardens Cafe,cafe,4.5,24,151.618303,-32.7823573,"9 Four Mile Creek Rd, Ashtonfield NSW 2323, Australia"
102,Asquith,2077,Savvy Coffee,cafe,4.2,107,151.1083456,-33.6875446,"399 Pacific Hwy, Asquith NSW 2077, Australia"
102,Asquith,2077,C-Cubed cafe,cafe,3.9,66,151.1093819,-33.6882613,"Asquith NSW 2077, Australia"
105,Auburn,2144,Cook & Co.,cafe,4.4,339,151.0327922,-33.8534488,"Shop 3/66 Auburn Rd, Auburn NSW 2144, Australia"
105,Auburn,2144,Auburn Fresh Juice Centre,cafe,4.4,333,151.0328756,-33.8503714,"9 Auburn Rd, Auburn NSW 2144, Australia"
105,Auburn,2144,McDonald's Auburn,cafe,3.5,3018,151.040996,-33.844607,"116 Parramatta Rd, Auburn NSW 2144, Australia"
105,Auburn,2144,The koffee spot,cafe,3.7,29,151.0285172,-33.8379093,"265 Parramatta Rd, Auburn NSW 2144, Australia"
105,Auburn,2144,Positive notes cafe eatery,cafe,4.8,51,151.0410738,-33.8434379,"113 Parramatta Rd, Auburn NSW 2144, Australia"
105,Auburn,2144,Breadtop Auburn,cafe,2.5,12,151.0320172,-33.8499163,"Shop q15/57-59 Queen St, Auburn NSW 2144, Australia"
105,Auburn,2144,Sibel’s Cafe,cafe,4.5,15,151.0334043,-33.8521296,"35 Queen St, Auburn NSW 2144, Australia"
105,Auburn,2144,Oliver Brown Auburn,cafe,3.5,90,151.0321711,-33.8506338,"Auburn Central Shopping Centre, Auburn NSW 2144, Australia"
105,Auburn,2144,Gloria Jeans Coffee's,cafe,3,97,151.0315633,-33.8499192,"24/57 Queen St, Auburn NSW 2144, Australia"
105,Auburn,2144,S.A.L.T. Cafe Auburn,cafe,4.4,33,151.032355,-33.840627,"Harvey Norman Flagship, 250 Parramatta Rd, Auburn NSW 2144, Australia"
105,Auburn,2144,Kanafandi,cafe,4.7,35,151.032722,-33.8515368,"Auburn Shopping Village, Shop No 4/41 Auburn Rd, Auburn NSW 2144, Australia"
105,Auburn,2144,Kismet Cafe,cafe,4.5,254,151.0330467,-33.8513871,"20 Auburn Rd, Auburn NSW 2144, Australia"
105,Auburn,2144,Morning Owl,cafe,4.6,322,151.0167907,-33.8786964,"16/17 George Young St, Auburn NSW 2144, Australia"
105,Auburn,2144,Quantum Cafe,cafe,4,27,151.0390975,-33.8512432,"8/7-9 Percy St, Auburn NSW 2144, Australia"
105,Auburn,2144,Cafe Bodrum,cafe,4.2,67,151.0320787,-33.8519188,"2/1 Mary St, Auburn NSW 2144, Australia"
105,Auburn,2144,Ottoman Haus cafe,cafe,4.7,85,151.0319395,-33.853905,"113 Auburn Rd, Auburn NSW 2144, Australia"
105,Auburn,2144,Krispy Kreme Auburn,cafe,4.2,1458,151.0411938,-33.845048,"Parramatta &, 116-124 St Hilliers Rd, Auburn NSW 2144, Australia"
105,Auburn,2144,EastPark Cafe,cafe,4.5,29,151.019272,-33.875725,"Unit 24 24/22 Princes Rd E, Auburn NSW 2144, Australia"
105,Auburn,2144,Chicago Jones Coffee & Chocolate Maison,cafe,3.7,113,151.0450253,-33.8468995,"100 Parramatta Rd, Auburn NSW 2144, Australia"
105,Auburn,2144,Cafe Cino Auburn,cafe,2.8,12,151.027722,-33.83766300000001,"c01/265 Parramatta Rd, Auburn NSW 2144, Australia"
105,Auburn,2144,Gong Cha | Auburn,cafe,3.3,95,151.031763,-33.8501529,"62/72 Queen St, Auburn NSW 2144, Australia"
105,Auburn,2144,Queen Street Cafe.,cafe,3.9,16,151.0333992,-33.8521405,"31-35 Queen St, Auburn NSW 2144, Australia"
105,Auburn,2144,Sharetea,cafe,2.6,31,151.0319776,-33.8494652,"Vales Ln, Auburn NSW 2144, Australia"
105,Auburn,2144,85 Degrees Cafe,cafe,2.8,22,151.0318286,-33.8502834,"Queen St, Auburn NSW 2144, Australia"
105,Auburn,2144,Concierge Car Wash & Cafe,cafe,3.8,25,151.0349557,-33.8411782,"212-214 Parramatta Rd, Auburn NSW 2144, Australia"
107,Austinmer,2515,Austi Beach Cafe,cafe,4.3,384,150.9342499,-34.3066292,"104 Lawrence Hargrave Dr, Austinmer NSW 2515, Australia"
107,Austinmer,2515,Moore Street General,cafe,4.6,65,150.930964,-34.3071846,"38 Moore St, Austinmer NSW 2515, Australia"
107,Austinmer,2515,Omni Cafe,cafe,4.8,8,150.9308364,-34.3071734,"40 Moore St, Austinmer NSW 2515, Australia"
108,Austral,2179,Sweet and Savoury Cafe,cafe,4.4,66,150.8118812,-33.9327741,"242 Edmondson Ave, Austral NSW 2179, Australia"
111,Avalon Beach,2107,The Sneaky Grind,cafe,4.8,72,151.329008,-33.637674,"3/48 Old Barrenjoey Rd, Avalon Beach NSW 2107, Australia"
111,Avalon Beach,2107,Swell Cafe,cafe,4.4,40,151.3296184,-33.6362581,"74 Old Barrenjoey Rd, Avalon Beach NSW 2107, Australia"
111,Avalon Beach,2107,Nourished Wholefood Cafe,cafe,4.3,197,151.32967,-33.636864,"17 Avalon Parade, Avalon Beach NSW 2107, Australia"
111,Avalon Beach,2107,Café Relish,cafe,4.5,102,151.3346403,-33.6274171,"8/1 N Avalon Rd, Avalon Beach NSW 2107, Australia"
111,Avalon Beach,2107,Bookoccino,cafe,4.5,63,151.3293447,-33.6370939,"66 Old Barrenjoey Rd, Avalon Beach NSW 2107, Australia"
111,Avalon Beach,2107,Alfonso's Cafe,cafe,4.9,40,151.3293586,-33.6285467,"43 Elvina Ave, Avalon Beach NSW 2107, Australia"
111,Avalon Beach,2107,Cafe Soto,cafe,1,1,151.3336204,-33.6218917,"2/1 Careel Head Rd, Avalon Beach NSW 2107, Australia"
111,Avalon Beach,2107,Beco@Chelsea,cafe,4.5,84,151.329008,-33.637674,"2/48 Old Barrenjoey Rd, Avalon Beach NSW 2107, Australia"
111,Avalon Beach,2107,Avalons Organics,cafe,4.6,14,151.3294969,-33.6366847,"25 Avalon Parade, Avalon Beach NSW 2107, Australia"
111,Avalon Beach,2107,Koto Avalon,cafe,4.2,70,151.329091,-33.636127,"3/49 Old Barrenjoey Rd, Avalon Beach NSW 2107, Australia"
111,Avalon Beach,2107,Chillbar,cafe,4.2,66,151.3296575,-33.6359939,"74 Old Barrenjoey Rd, Avalon Beach NSW 2107, Australia"
111,Avalon Beach,2107,AzSAP Battery - Mzobile Mezchanic - Azvalon Bzeach,cafe,0,0,151.328144,-33.636213,"49 Avalon Parade, Avalon Beach NSW 2107, Australia"
111,Avalon Beach,2107,The Chick'n Shack,cafe,4.2,28,151.3336204,-33.6218917,"Shop 7/1 Careel Head Rd, Avalon Beach NSW 2107, Australia"
111,Avalon Beach,2107,Graze N Cakes,cafe,4.9,44,151.334207,-33.6215609,"3/38 Burrawong Rd, Avalon Beach NSW 2107, Australia"
111,Avalon Beach,2107,Franks Bar,cafe,0,0,151.3289059,-33.6360884,"10/20 Avalon Parade, Avalon Beach NSW 2107, Australia"
114,Avoca Beach,2251,Hi -Tide Cafe,cafe,4.1,96,151.4327212,-33.4651969,"182 Avoca Dr, Avoca Beach NSW 2251, Australia"
114,Avoca Beach,2251,Sul Rondo,cafe,4.3,93,151.4334604,-33.4655077,"4/170 Avoca Dr, Avoca Beach NSW 2251, Australia"
114,Avoca Beach,2251,Point Cafe,cafe,4.2,270,151.4370727,-33.4706212,"10 Vine St, Avoca Beach NSW 2251, Australia"
114,Avoca Beach,2251,Like Minds,cafe,4.8,165,151.426802,-33.4624008,"352 The Round Dr, Avoca Beach NSW 2251, Australia"
114,Avoca Beach,2251,Bakehouse Cafe (Avoca Beach Bakery),cafe,2.8,12,151.4327292,-33.4652549,"Shop 3/180 Avoca Dr, Avoca Beach NSW 2251, Australia"
114,Avoca Beach,2251,Avoca Sands Café ~ Bar,cafe,4.2,126,151.4361625,-33.4707465,"6 Vale Ave, Avoca Beach NSW 2251, Australia"
114,Avoca Beach,2251,Becker & Co.,cafe,4.4,82,151.4336297,-33.466297,"2/162 Avoca Dr, Avoca Beach NSW 2251, Australia"
114,Avoca Beach,2251,The Theatre Cafe & Wine Bar,cafe,5,4,151.4364294,-33.4715742,"69-71 Avoca Dr, Avoca Beach NSW 2251, Australia"
114,Avoca Beach,2251,Waves,cafe,5,1,151.4331345,-33.4648708,"181 Avoca Dr, Avoca Beach NSW 2251, Australia"
146,Balgowlah,2093,Cheese On Wheels - The Balgowlah Cheese Shop,cafe,5,22,151.2636268,-33.7944409,"397 Sydney Rd, Balgowlah NSW 2093, Australia"
146,Balgowlah,2093,Balgowlah Social Eatery & Espresso Bar,cafe,4.9,139,151.2652212,-33.7945892,"357 Sydney Rd, Balgowlah NSW 2093, Australia"
146,Balgowlah,2093,Forty Beans,cafe,4.4,122,151.2641789,-33.799365,"2/11 Lower Beach St, Balgowlah NSW 2093, Australia"
146,Balgowlah,2093,Roseberry Street Cafe,cafe,4.4,252,151.2670984,-33.7902538,"2/62 Balgowlah Rd, Balgowlah NSW 2093, Australia"
146,Balgowlah,2093,Essence Café,cafe,4.2,9,151.264485,-33.793636,"Shop 2, Stockland Balgowlah, 197-215 Condamine St, Balgowlah NSW 2093, Australia"
146,Balgowlah,2093,Aggy's Corner,cafe,4.9,80,151.261545,-33.790525,"Shop 1/94 West St, Balgowlah NSW 2093, Australia"
146,Balgowlah,2093,Moreish Foods,cafe,4.2,38,151.2642695,-33.7929847,"15/197-215 Condamine St, Balgowlah NSW 2093, Australia"
146,Balgowlah,2093,Bacino Bar Balgowlah,cafe,4.5,80,151.2641393,-33.7944796,"Shop1/381-383 Sydney Rd, Balgowlah NSW 2093, Australia"
146,Balgowlah,2093,Bean Obsessed,cafe,4.4,24,151.2646694,-33.7932651,"215 Condamine St, Balgowlah NSW 2093, Australia"
146,Balgowlah,2093,Harlequin's Cakes,cafe,3.8,13,151.2649994,-33.7946531,"363 Sydney Rd, Balgowlah NSW 2093, Australia"
146,Balgowlah,2093,Malibu Grill,cafe,4.1,31,151.264612,-33.792684,"18/197-215 Condamine St, Balgowlah NSW 2093, Australia"
146,Balgowlah,2093,Cafe Noir,cafe,3.3,8,151.2664429,-33.7889955,"Condamine St, Balgowlah NSW 2093, Australia"
146,Balgowlah,2093,Charlotte,cafe,4.6,20,151.258113,-33.794909,"68 Wanganella St, Balgowlah NSW 2093, Australia"
147,Balgowlah Heights,2093,Balgowlah Heights Deli,cafe,4.4,52,151.2574534,-33.8010442,"2093/122 Beatrice St, Balgowlah Heights NSW 2093, Australia"
147,Balgowlah Heights,2093,Coffee No 5,cafe,4.7,6,151.2571054,-33.8006727,"73 New St W, Balgowlah Heights NSW 2093, Australia"
147,Balgowlah Heights,2093,Carly Mays Kitchen,cafe,4.7,15,151.2606579,-33.8070682,"1427 Bareena Dr, Balgowlah Heights NSW 2093, Australia"
148,Balgownie,2519,Nourished at Bally,cafe,4.3,32,150.877642,-34.3887599,"139 Balgownie Rd, Balgownie NSW 2519, Australia"
148,Balgownie,2519,Hone Cafe,cafe,4.3,29,150.8770402,-34.3884213,"Shop 3/167-172 Balgownie Rd, Balgownie NSW 2519, Australia"
148,Balgownie,2519,Mad Cup Cafe,cafe,5,8,150.8767694,-34.3888616,"28/145 Balgownie Rd, Balgownie NSW 2519, Australia"
155,Ballina,2478,Gloria Jean’s Coffees Ballina,cafe,4.2,45,153.5589758,-28.8583592,"Shop 10, Ballina Fair Shopping Centre Cnr Fox &, Kerr St, Ballina NSW 2478, Australia"
155,Ballina,2478,Green Coast Coffee,cafe,4.8,83,153.5600033,-28.8705498,"Shop 1, 2 & 3 Riverwalk Centre, 144 River St, Ballina NSW 2478, Australia"
155,Ballina,2478,Cafe Swish,cafe,4.5,213,153.559995,-28.870189,"147 River St, Ballina NSW 2478, Australia"
155,Ballina,2478,Old Quarter Coffee Merchants,cafe,4.9,80,153.5574425,-28.85238589999999,"2/6 Endeavour Cl, Ballina NSW 2478, Australia"
155,Ballina,2478,The Coffee Club Café - Ballina Fair,cafe,4.1,125,153.5588989,-28.8592036,"Ballina Fair Shopping Centre, 84 Kerr St, Ballina NSW 2478, Australia"
155,Ballina,2478,Cafe Sebastian,cafe,4,25,153.5588912,-28.8583925,"36 Fox St, Ballina NSW 2478, Australia"
155,Ballina,2478,Belle Central,cafe,4.4,165,153.560339,-28.869883,"Shop 12 Wigmore Arcade 141 River Street, Ballina NSW 2478, Australia"
155,Ballina,2478,The Gallery Cafe,cafe,4.5,238,153.5619659,-28.8686905,"46 Cherry St, Ballina NSW 2478, Australia"
155,Ballina,2478,The Lantern Tea Room,cafe,4.3,32,153.5627043,-28.8587799,"Shop 9/44 Bangalow Rd, Ballina NSW 2478, Australia"
155,Ballina,2478,Stir Coffee +,cafe,4.8,15,153.5604763,-28.8598906,"Outside Coles, 95 Fox Street, Ballina NSW 2478, Australia"
155,Ballina,2478,The Kitchen Cafe,cafe,4.8,44,153.561665,-28.8705429,"23 Cherry St, Ballina NSW 2480, Australia"
155,Ballina,2478,Brewsters Cafe,cafe,4.1,121,153.5611111,-28.8705556,"105 River St, Ballina NSW 2478, Australia"
155,Ballina,2478,Cafe Fix.,cafe,4.3,9,153.5626037,-28.8588128,"Ballina NSW 2478, Australia"
155,Ballina,2478,The Point Bar & Restaurant Ballina,cafe,3.7,256,153.5626113,-28.8726872,"2 Martin St, Ballina NSW 2478, Australia"
155,Ballina,2478,Latte Lounge Ballina,cafe,4.6,14,153.557755,-28.8445961,"9/26 Boeing Ave, Ballina NSW 2478, Australia"
155,Ballina,2478,Coffee & Kitchen,cafe,4.9,9,153.5621966,-28.8710876,"77 River St, Ballina NSW 2478, Australia"
155,Ballina,2478,Racecourse Cafe,cafe,4.6,28,153.5588378,-28.8507137,"1/1 Simmons St, Ballina NSW 2478, Australia"
155,Ballina,2478,Main Street Cafe,cafe,4.2,35,153.5587114,-28.8703043,"2 Moon St, Ballina NSW 2478, Australia"
155,Ballina,2478,Just Funkin Music,cafe,4.6,20,153.560422,-28.870838,"124 River St, Ballina NSW 2478, Australia"
155,Ballina,2478,café horizon,cafe,5,1,153.5563273,-28.8374351,"Ballina NSW 2478, Australia"
155,Ballina,2478,Chef and Shuka,cafe,4.8,164,153.5631208,-28.8714918,"43 River St, Ballina NSW 2478, Australia"
155,Ballina,2478,Dumplings And Yum Cha,cafe,4.3,13,153.5596304,-28.8694191,"9 Moon St, Ballina NSW 2478, Australia"
155,Ballina,2478,Martin's Bakery Ballina,cafe,4.6,62,153.5586125,-28.8689061,"92 Tamar St, Ballina NSW 2478, Australia"
155,Ballina,2478,Brumby's Ballina,cafe,4.2,22,153.5594682,-28.870327,"172 River St, Ballina NSW 2478, Australia"
155,Ballina,2478,Wharf Bar & Restaurant Ballina,cafe,4,496,153.559784,-28.871125,"12-24 Fawcett St, Ballina NSW 2478, Australia"
155,Ballina,2478,Thursday Plantation Visitors Centre & Cafe,cafe,4.4,164,153.542399,-28.84236,"Lot, 7 Gallans Rd, Ballina NSW 2478, Australia"
155,Ballina,2478,Radiance Plant Hire,cafe,0,0,153.560001,-28.8684827,"5 Pipi Pl, Ballina NSW 2478, Australia"
155,Ballina,2478,The Salt Bar,cafe,3,3,153.5565425,-28.8373088,"Ballina Byron Gateway, NSW 2478, Australia"
155,Ballina,2478,Riva Bar & Grill,cafe,5,4,153.5624457,-28.8727355,"2 Martin St, Ballina NSW 2478, Australia"
155,Ballina,2478,Sasha's Fine Food,cafe,5,6,153.5603721,-28.8706865,"126-128 River St, Ballina NSW 2478, Australia"
155,Ballina,2478,Kin Local Eatery,cafe,5,1,153.5587522,-28.8702225,"178 River St, Ballina NSW 2478, Australia"
155,Ballina,2478,Ballina RSL,cafe,4.1,1084,153.556941,-28.869492,"1 Grant St, Ballina NSW 2478, Australia"
158,Balmain,2041,Our Farm Kitchen,cafe,4.4,28,151.178456,-33.856838,"354 Darling St, Balmain NSW 2041, Australia"
158,Balmain,2041,Beattie Café & Vinoteca,cafe,0,0,151.1773017,-33.8590139,"94 Beattie St, Balmain NSW 2041, Australia"
158,Balmain,2041,Little M,cafe,5,15,151.1805474,-33.8575205,"296 Darling St, Balmain NSW 2041, Australia"
158,Balmain,2041,Vito Gelato Dessert Cafe,cafe,4.6,47,151.1797849,-33.8570037,"6/314-322 Darling St, Balmain NSW 2041, Australia"
158,Balmain,2041,Wilhelmina's,cafe,4.6,166,151.1793799,-33.8569024,"Shop 4/332 Darling St, Balmain NSW 2041, Australia"
158,Balmain,2041,The Little Marionette (little m),cafe,5,3,151.1805474,-33.8575205,"296 Darling St, Balmain NSW 2041, Australia"
158,Balmain,2041,Grit & Grind,cafe,4.7,49,151.1726604,-33.8564487,"485A Darling St, Balmain NSW 2041, Australia"
158,Balmain,2041,Contessa,cafe,4.5,284,151.177681,-33.856247,"371B Darling St, Balmain NSW 2041, Australia"
158,Balmain,2041,Kafeine,cafe,4.3,274,151.1819929,-33.8578655,"260 Darling St, Balmain NSW 2041, Australia"
158,Balmain,2041,Le Cafeier,cafe,4.3,146,151.1799621,-33.8570518,"314/322 Darling St, Balmain NSW 2041, Australia"
158,Balmain,2041,Bertoni Casalinga: SYDNEY'S BEST CAFE,cafe,4.6,189,151.1810948,-33.8574425,"281 Darling St, Balmain NSW 2041, Australia"
158,Balmain,2041,Ciao Thyme,cafe,4.4,92,151.1855289,-33.858324,"212 Darling St, Balmain NSW 2041, Australia"
158,Balmain,2041,Gelatissimo Balmain,cafe,4.3,68,151.1822063,-33.8578777,"254 Darling St, Balmain NSW 2041, Australia"
158,Balmain,2041,Casual Mondays,cafe,4.3,63,151.178765,-33.856711,"344 Darling St, Balmain NSW 2041, Australia"
158,Balmain,2041,cafe d'Yvoire,cafe,4.7,113,151.1860568,-33.85813230000001,"4/189 Darling St, Balmain NSW 2041, Australia"
158,Balmain,2041,Mr. Cafe & Bar,cafe,4.4,105,151.1745646,-33.8561578,"Shop 11/418 Darling St, Balmain NSW 2041, Australia"
158,Balmain,2041,Fundamental,cafe,4.3,89,151.1817916,-33.857823,"266 Darling St, Balmain NSW 2041, Australia"
158,Balmain,2041,Orange lotus cafe,cafe,4.7,43,151.174647,-33.859394,"152 Beattie St, Balmain NSW 2041, Australia"
158,Balmain,2041,Hungry Bull Co. Balmain,cafe,4.5,134,151.1760535,-33.8558964,"411 Darling St, Balmain NSW 2041, Australia"
158,Balmain,2041,Bourke Street Bakery,cafe,4.2,81,151.1823333,-33.8581003,"1A Booth St, Balmain NSW 2041, Australia"
158,Balmain,2041,Chez Alex,cafe,4.8,15,151.1755739,-33.8558318,"Shop 2/415 Darling St, Balmain NSW 2041, Australia"
158,Balmain,2041,Cafe 2041,cafe,4,22,151.1799197,-33.86237,"Shop 134/85 Reynolds St, Balmain NSW 2041, Australia"
158,Balmain,2041,Poppys,cafe,4.4,8,151.172422,-33.856663,"487 Darling St, Balmain NSW 2041, Australia"
158,Balmain,2041,little Ethel’s,cafe,4.8,82,151.1766301,-33.861718,"2/84 Mullens St, Balmain NSW 2041, Australia"
158,Balmain,2041,BERLIN BAKR,cafe,4.2,176,151.1824585,-33.8575165,"249 Darling St, Balmain NSW 2041, Australia"
159,Balmain East,2041,Euforia Espresso,cafe,4.5,219,151.193553,-33.857477,"58 Darling St, Balmain East NSW 2041, Australia"
159,Balmain East,2041,Seven Thirty Coffee,cafe,4.7,22,151.193007,-33.857375,"59 Darling St, Balmain East NSW 2041, Australia"
166,Bangalee,2541,Cambewarra Estate Winery,cafe,4.4,52,150.559522,-34.839385,"520 Illaroo Rd, Bangalee NSW 2541, Australia"
167,Bangalow,2479,WOODS BANGALOW,cafe,4.4,146,153.5244742,-28.6854186,"10 Station St, Bangalow NSW 2479, Australia"
167,Bangalow,2479,Sparrow Coffee - Bangalow,cafe,4.7,38,153.5244811,-28.68651819999999,"1A/32-34 Byron St, Bangalow NSW 2479, Australia"
167,Bangalow,2479,Butcher Baker Bangalow,cafe,4.5,281,153.5239768,-28.6864379,"13 Byron St, Bangalow NSW 2479, Australia"
167,Bangalow,2479,Pantry 29,cafe,4.4,32,153.524372,-28.6863475,"29 Byron St, Bangalow NSW 2479, Australia"
167,Bangalow,2479,Town Restaurant,cafe,4.4,60,153.5244944,-28.6862466,"33 Byron St, Bangalow NSW 2479, Australia"
167,Bangalow,2479,Bangalow Espressobar,cafe,5,1,153.5246247,-28.6863123,"3/38 Byron St, Bangalow NSW 2479, Australia"
167,Bangalow,2479,BANGBURGERBAR,cafe,4.2,190,153.525206,-28.686187,"2/39 Byron St, Bangalow NSW 2479, Australia"
170,Bangor,2234,Roastwell Cafe,cafe,5,3,151.0293106,-34.0180054,"Suite 5 (Downstairs) Bangor Centre, Cnr Menai & Yala Roads, Bangor NSW 2234, Australia"
171,Banksia,2216,Dark Matter Cafe,cafe,4.6,31,151.1403845,-33.94424100000001,"14 Railway St, Banksia NSW 2216, Australia"
171,Banksia,2216,One Sugar Extra Shot,cafe,4.8,19,151.1422881,-33.9443758,"282 Princes Hwy, Banksia NSW 2216, Australia"
171,Banksia,2216,Banksia Bakery,cafe,4.7,264,151.1399638,-33.9453023,"26 Railway St, Banksia NSW 2216, Australia"
171,Banksia,2216,Demochi Donut,cafe,3.5,21,151.1423232,-33.9448192,"286 Princes Hwy, Banksia NSW 2216, Australia"
172,Banksmeadow,2019,Bayview Cafe,cafe,4.5,71,151.2110055,-33.9598081,"1753 Botany Rd, Banksmeadow NSW 2019, Australia"
172,Banksmeadow,2019,Bourke Street Bakery,cafe,4.4,216,151.2142967,-33.9466492,"18 Anderson St, Banksmeadow NSW 2019, Australia"
172,Banksmeadow,2019,Big Wheels Cafe,cafe,3.9,73,151.2112231,-33.9578862,"12 Exell St, Banksmeadow NSW 2019, Australia"
172,Banksmeadow,2019,Discovery Cove Cafe,cafe,4.4,58,151.2133851,-33.9606112,"1801 Botany Rd, Banksmeadow NSW 2019, Australia"
172,Banksmeadow,2019,Will & Mike's,cafe,4.2,13,151.2130949,-33.9456337,"14A Baker St, Banksmeadow NSW 2019, Australia"
173,Bankstown,2200,Coco Bean Cafe,cafe,4.5,35,151.0340943,-33.914627,"1/434 Chapel Rd, Bankstown NSW 2200, Australia"
173,Bankstown,2200,Titanic Cafe,cafe,4.1,559,151.036597,-33.91947,"49 Raymond St, Bankstown NSW 2200, Australia"
173,Bankstown,2200,Michel's Bankstown Central,cafe,4.1,62,151.037814,-33.916661,"TK202/12 Bankstown Central Shopping Centre, 12/41 North Terrace, Bankstown NSW 2200, Australia"
173,Bankstown,2200,Muffin Break Bankstown,cafe,4,17,151.0376636,-33.9157268,"Bankstown Central, 37 North Terrace, Bankstown NSW 2200, Australia"
173,Bankstown,2200,LA Moosh Bakery Cafe,cafe,4.7,31,151.0344862,-33.918491,"1/9-11 Bankstown City Plaza, Bankstown NSW 2200, Australia"
173,Bankstown,2200,Pastaccino,cafe,4.7,15,151.0384842,-33.9162176,"Shop 333/1 North Terrace, Bankstown NSW 2200, Australia"
173,Bankstown,2200,San Churro Bankstown (Located inside Bankstown Sports Club),cafe,4.1,219,151.033278,-33.9195351,"Bankstown Sports Club, 8 Greenfield Parade, Bankstown NSW 2200, Australia"
173,Bankstown,2200,Flying Zebra,cafe,4.7,30,151.0331913,-33.9182845,"68 Bankstown City Plaza, Bankstown NSW 2200, Australia"
173,Bankstown,2200,Oliver Brown Little Saigon Bankstown,cafe,3.8,96,151.0343431,-33.913398,"462 Chapel Rd, Bankstown NSW 2200, Australia"
173,Bankstown,2200,Maple & Co Cafe,cafe,3.8,47,151.0379922,-33.9161467,"Shop 316 Level 1, Central Bankstown, Bankstown NSW 2200, Australia"
173,Bankstown,2200,Cafe Nho,cafe,4.1,121,151.033007,-33.918252,"64 Bankstown City Plaza, Bankstown NSW 2200, Australia"
173,Bankstown,2200,The Coffee Emporium,cafe,3.7,10,151.0379687,-33.9165935,"57A The Mall, Bankstown NSW 2200, Australia"
173,Bankstown,2200,Gloria Jean's Coffees Bankstown Centro,cafe,5,1,151.0380271,-33.916372,"Shop ML083 North Terrace, Bankstown NSW 2200, Australia"
173,Bankstown,2200,Sweetiz Cafe,cafe,4.9,8,151.0309026,-33.9167606,"C/2 Meredith St, Bankstown NSW 2200, Australia"
173,Bankstown,2200,LIL HIDEOUT CAFE,cafe,4.3,44,151.0332551,-33.9167654,"357 Chapel Rd, Bankstown NSW 2200, Australia"
173,Bankstown,2200,AFANDI,cafe,4.7,76,151.035367,-33.9168726,"44a The Appian Way, Bankstown NSW 2200, Australia"
173,Bankstown,2200,Cheeky Baba,cafe,4.6,91,151.0383891,-33.9210123,"7-9 Cross St, Bankstown NSW 2200, Australia"
173,Bankstown,2200,C Square Coffee & Crepes,cafe,4.7,103,151.0294785,-33.933027,"Shop 10 Home Central 173 Canterbury Rd, Bankstown NSW 2200, Australia"
173,Bankstown,2200,Mr Bingsoo,cafe,3.8,45,151.03408,-33.9134,"N/462 Chapel Rd, Bankstown NSW 2200, Australia"
173,Bankstown,2200,Affiniti Cafe,cafe,4.5,15,151.0360407,-33.9157121,"C/69 The Mall, Bankstown NSW 2200, Australia"
173,Bankstown,2200,The Coffee Club Café - Bankstown,cafe,4.2,227,151.0380864,-33.9167483,"Shop T234/1 North Terrace, Bankstown NSW 2200, Australia"
173,Bankstown,2200,Chocolates Del Mondo,cafe,4.1,264,151.0351562,-33.9128647,"1/465 Chapel Rd, Bankstown NSW 2200, Australia"
173,Bankstown,2200,Michael's Coffee House,cafe,4,92,151.0390277,-33.9161298,"Centro Shopping Centre, 50 North Terrace, Bankstown NSW 2200, Australia"
173,Bankstown,2200,Gloria Jean's Coffees Bankstown Kiosk OPPOSITE WOOLWORTHS,cafe,3.4,159,151.0406416,-33.91678479999999,"Shop KI102 Off STACEY STREET ROOFTOP CARPARK Located opposite Woolworths, Bankstown NSW 2200, Australia"
173,Bankstown,2200,The Coffee Emporium Bankstown 1,cafe,4.2,99,151.0379757,-33.9165794,"T234/1 North Terrace, Bankstown NSW 2200, Australia"
173,Bankstown,2200,BLaKC Cafe,cafe,3.9,26,151.0347176,-33.91508719999999,"80 Rickard Rd, Bankstown NSW 2200, Australia"
173,Bankstown,2200,AffinitiCafe-Bankstown,cafe,4.2,26,151.0359802,-33.9157416,"Shop 3/69 The Mall, Bankstown NSW 2200, Australia"
173,Bankstown,2200,Oliver Brown,cafe,3.8,370,151.0402258,-33.9160551,"Level 2, Bankstown Central Shopping Centre, 180 Stacey St, Bankstown NSW 2200, Australia"
173,Bankstown,2200,Window's Cafe,cafe,3.7,131,151.0311111,-33.9205556,"256 Chapel Rd, Bankstown NSW 2200, Australia"
173,Bankstown,2200,Cafe Sienna,cafe,5,5,151.0340974,-33.9132404,"432 Chapel Rd, Bankstown NSW 2200, Australia"
173,Bankstown,2200,The Coffee Emporium Bankstown 2,cafe,4.2,305,151.0385818,-33.916344,"ml436, 1 North Terrace, Bankstown NSW 2200, Australia"
173,Bankstown,2200,Cornerstone Coffee & Kitchen,cafe,3.8,18,151.0332172,-33.9197581,"8 Greenfield Parade, Bankstown NSW 2200, Australia"
173,Bankstown,2200,Zarraffa's Coffee Bankstown,cafe,4,118,151.0296764,-33.9320596,"Home, 9-67 Chapel Rd, Bankstown NSW 2200, Australia"
173,Bankstown,2200,Le P'tit Cafe,cafe,5,1,151.0339347,-33.917366,"116 Bankstown City Plaza, Bankstown NSW 2200, Australia"
173,Bankstown,2200,Shingle Inn Bankstown,cafe,4.9,14,151.0395128,-33.9158862,"Shop KI101, 1 North Terrace, Bankstown NSW 2200, Australia"
173,Bankstown,2200,Sweet City Cafe,cafe,3.8,153,151.0386587,-33.91809569999999,"Shop 1/232 South Terrace, Bankstown NSW 2200, Australia"
173,Bankstown,2200,The Plaza Cafe Bankstown,cafe,4.6,17,151.0331037,-33.9175069,"100 Bankstown City Plaza, Bankstown NSW 2200, Australia"
173,Bankstown,2200,Cafe Dibi,cafe,3.5,107,151.0402157,-33.9159467,"Lady Cutler Ave, Bankstown NSW 2200, Australia"
173,Bankstown,2200,Glaçage,cafe,4.4,342,151.0353083,-33.9127111,"2/465 Chapel Rd, Bankstown NSW 2200, Australia"
173,Bankstown,2200,@Iconic,cafe,4,269,151.0377749,-33.9158715,"Shop/116 North Terrace, Bankstown NSW 2200, Australia"
173,Bankstown,2200,Guilty by Taste,cafe,4.9,20,151.0334301,-33.9167831,"357 Chapel Rd, Bankstown NSW 2200, Australia"
173,Bankstown,2200,HODL KAFE,cafe,4.5,6,151.033929,-33.918041,"141 Bankstown City Plaza, Sydney NSW 2200, Australia"
173,Bankstown,2200,Hard Wash Cafe Bankstown,cafe,3.5,24,151.0364744,-33.9066344,"345 Hume Hwy, Bankstown NSW 2200, Australia"
173,Bankstown,2200,85 Degrees Cafe,cafe,2.7,28,151.0325579,-33.9186637,"44 Bankstown City Plaza, Bankstown NSW 2200, Australia"
173,Bankstown,2200,Niba Cafe,cafe,0,0,151.0335527,-33.918163,"Bankstown City Plaza, Bankstown NSW 2200, Australia"
173,Bankstown,2200,Gong Cha,cafe,4,12,151.0388089,-33.9162045,"KI217 Bankstown Central, North Terrace, Bankstown NSW 2200, Australia"
173,Bankstown,2200,VBites,cafe,4.1,171,151.0320531,-33.91913359999999,"Shop 3/313 Chapel Rd, Bankstown NSW 2200, Australia"
173,Bankstown,2200,Grab a Cino,cafe,5,1,151.0362646,-33.9150723,"66-72 Rickard Rd, Bankstown NSW 2200, Australia"
173,Bankstown,2200,Gong Cha,cafe,3.8,211,151.033478,-33.918205,"75 Bankstown City Plaza, Bankstown NSW 2200, Australia"
173,Bankstown,2200,Chinchilla Xpress,cafe,4.9,9,151.0339926,-33.9176743,"126 Bankstown City Plaza, Bankstown NSW 2200, Australia"
173,Bankstown,2200,McDonald's Bankstown,cafe,3,1535,151.0384434,-33.9140145,"37 Rickard Rd, Bankstown NSW 2200, Australia"
173,Bankstown,2200,McDonald's Bankstown Centro F/C II,cafe,3.1,412,151.0372821,-33.9160919,"Bankstown Centro Shopping Centre, Bankstown NSW 2200, Australia"
173,Bankstown,2200,Nourished Organics,cafe,4.9,41,151.0400212,-33.9182896,"212 South Terrace, Bankstown NSW 2200, Australia"
174,Bankstown Aerodrome,2200,Om Cafeteria,cafe,5,2,150.9920691,-33.9182537,"G1/621 Airport Ave, Bankstown Aerodrome NSW 2200, Australia"
180,Banora Point,2486,Cafe 88,cafe,3.3,4,153.541173,-28.2148046,"59 Darlington Dr, Banora Point NSW 2486, Australia"
180,Banora Point,2486,McDonald's Banora Point,cafe,3.3,261,153.5416013,-28.2137453,"53 Darlington Dr, Banora Point NSW 2486, Australia"
180,Banora Point,2486,Dulcie and Edna,cafe,4.8,32,153.528378,-28.2245996,"21-25 Amaroo Dr, Banora Point NSW 2486, Australia"
182,Bar Beach,2300,HuBro,cafe,4.7,116,151.7654375,-32.9384868,"1A/295 Darby St, Bar Beach NSW 2300, Australia"
182,Bar Beach,2300,Swell Kiosk Bar Beach,cafe,4.1,610,151.7675616,-32.9413417,"1 Memorial Dr, Bar Beach NSW 2300, Australia"
185,Baradine,2396,The Embassy Baradine,cafe,4.2,17,149.068498,-30.949517,"11 Wellington St, Baradine NSW 2396, Australia"
186,Barangaroo,2000,Pacifica Espresso,cafe,4.6,21,151.2028921,-33.866338,"12 Shelley St, Barangaroo NSW 2000, Australia"
186,Barangaroo,2000,Parisi Barangaroo,cafe,2.9,25,151.2020345,-33.8645998,"T2/11, 200 Barangaroo Ave, Barangaroo NSW 2000, Australia"
186,Barangaroo,2000,Shortstop Coffee & Donuts,cafe,4.5,618,151.2014199,-33.8643171,"Shop 3/23 Barangaroo Ave, Barangaroo NSW 2000, Australia"
186,Barangaroo,2000,Devon Cafe Barangaroo,cafe,4.1,597,151.2025594,-33.8646827,"19/200 Barangaroo Ave, Barangaroo NSW 2000, Australia"
186,Barangaroo,2000,North Espresso,cafe,4.9,14,151.2021393,-33.8638509,"100 Barangaroo Ave, Barangaroo NSW 2000, Australia"
186,Barangaroo,2000,Bourke Street Bakery,cafe,4.3,425,151.2014355,-33.8645857,"4/23 Barangaroo Ave, Barangaroo NSW 2000, Australia"
186,Barangaroo,2000,Bel & Brio,cafe,4.1,1173,151.2018158,-33.8652856,"T3.01/300 Barangaroo Ave, Barangaroo NSW 2000, Australia"
186,Barangaroo,2000,Toby's Estate Flagship Cafe Barangaroo Tower 2,cafe,4.1,59,151.2022522,-33.8646443,"Shop 12 International, Tower 2/200 Barangaroo Ave, Barangaroo NSW 2000, Australia"
186,Barangaroo,2000,Rivareno Gelato Barangaroo,cafe,4.5,1187,151.201572,-33.8653426,"4/33 Barangaroo Ave, Barangaroo NSW 2000, Australia"
186,Barangaroo,2000,Wild Sage,cafe,4.2,646,151.202856,-33.8652364,"Exchange Place, 3 Sussex St, Barangaroo NSW 2000, Australia"
186,Barangaroo,2000,The Streets of Barangaroo,cafe,5,1,151.2015441,-33.8647085,"Barangaroo Ave, Barangaroo NSW 2000, Australia"
186,Barangaroo,2000,Micro,cafe,4.4,62,151.2014058,-33.864213,"shop r8/02, 23 Barangaroo Ave, Barangaroo NSW 2000, Australia"
186,Barangaroo,2000,Shirt Bar,cafe,4.3,333,151.2026087,-33.8643022,"Tower 1, Corner Scotch Row and, Shipwright Walk, Barangaroo NSW 2000, Australia"
186,Barangaroo,2000,South Coffee & Food,cafe,4.5,90,151.2018975,-33.8637809,"International Towers Sydney, Tower 1/100 Barangaroo Ave, Barangaroo NSW 2000, Australia"
186,Barangaroo,2000,Verd Barangaroo,cafe,4.3,56,151.2026415,-33.8650481,"Shop/5 Scotch Row, Barangaroo NSW 2000, Australia"
186,Barangaroo,2000,Luxe Barangaroo,cafe,4.3,37,151.2015053,-33.8649796,"33 Barangaroo Ave, Barangaroo NSW 2000, Australia"
186,Barangaroo,2000,Good Vibes Only,cafe,4.6,47,151.203461,-33.865305,"26b Sussex St, Barangaroo NSW 2000, Australia"
190,Bardwell Park,2207,Pinocchio Caffè,cafe,4.8,50,151.1254325,-33.9316527,"14 Hartill-Law Ave, Bardwell Park NSW 2207, Australia"
190,Bardwell Park,2207,The Lil Hut,cafe,5,38,151.1255127,-33.931823,"6 Hartill-Law Ave, Bardwell Park NSW 2207, Australia"
192,Barellan,2665,Golden Grain Cafe,cafe,4.3,25,146.572379,-34.285031,"98 Yapunyah St, Barellan NSW 2665, Australia"
194,Barham,2732,"Canvas,Coffee & Providore",cafe,4.1,21,144.1285838,-35.6291052,"Noorong St, Barham NSW 2732, Australia"
194,Barham,2732,Barham Riverside Cafe,cafe,3.7,78,144.127232,-35.629871,"22 Murray St, Barham NSW 2732, Australia"
200,Barraba,2347,Barraba Cafe,cafe,4,29,150.61108,-30.379392,"102 Queen St, Barraba NSW 2347, Australia"
200,Barraba,2347,Queen Street Cafe & Takeaway,cafe,4.4,55,150.6106336,-30.3800775,"82A Queen St, Barraba NSW 2347, Australia"
200,Barraba,2347,Polkadot,cafe,4.4,22,150.6100167,-30.3799304,"85 Queen St, Barraba NSW 2347, Australia"
207,Barrengarry,2577,The World's Best Pies Cafe,cafe,4.3,76,150.5256809,-34.7175454,"2167 Moss Vale Rd, Barrengarry NSW 2577, Australia"
207,Barrengarry,2577,Tianas place,cafe,0,0,150.5263119,-34.7170637,"2210 Moss Vale Rd, Barrengarry NSW 2577, Australia"
216,Basin View,2540,Luci's Pizza Base,cafe,3.9,80,150.5626782,-35.0908326,"4/1 Tallyan Point Rd, Basin View NSW 2540, Australia"
217,Bass Hill,2197,Zaytoon Cafe,cafe,4.3,126,150.99402,-33.8991134,"32 Greater Cct, Bass Hill NSW 2197, Australia"
217,Bass Hill,2197,Cafe Vienna,cafe,3.4,27,150.993476,-33.8996239,"753 Hume Hwy, Bass Hill NSW 2197, Australia"
217,Bass Hill,2197,Bubbles Shisha Cafe,cafe,5,1,150.9947586,-33.8975961,"924 Hume Hwy, Bass Hill NSW 2197, Australia"
217,Bass Hill,2197,Wendy's,cafe,4.4,43,150.9929937,-33.8999773,"Kiosk 6/753 Hume Hwy, Bass Hill NSW 2197, Australia"
217,Bass Hill,2197,Caffetto Lounge Shisha,cafe,4.6,14,151.002644,-33.903189,"358 Hector St, Bass Hill NSW 2197, Australia"
217,Bass Hill,2197,McDonald's Bass Hill,cafe,3.4,969,150.9989144,-33.9005335,"872 Hume Hwy, Bass Hill NSW 2197, Australia"
220,Bateau Bay,2261,Cafe Mocha,cafe,4.6,131,151.480697,-33.381447,"1/103 Bateau Bay Rd, Bateau Bay NSW 2261, Australia"
220,Bateau Bay,2261,The Coffee Club Café - Bateau Bay,cafe,4.1,108,151.473094,-33.3757112,"Shop 63, Stockland Bay Village, The Entrance Rd, Bateau Bay NSW 2261, Australia"
220,Bateau Bay,2261,Bateau Beach Cafe,cafe,4.5,130,151.483703,-33.378653,"61 Bateau Bay Rd, Bateau Bay NSW 2261, Australia"
220,Bateau Bay,2261,Muffin Break Bateau Bay,cafe,3.6,21,151.4731661,-33.3744386,"Bateau Bay Road, The Entrance Rd, Bateau Bay NSW 2261, Australia"
220,Bateau Bay,2261,Soul Origin,cafe,3.6,14,151.4732646,-33.3747254,"shop 028/12 Bay Village Rd, Bateau Bay NSW 2261, Australia"
220,Bateau Bay,2261,McDonald's Bateau Bay,cafe,3.4,442,151.4743509,-33.3735439,"Bay Village Shopping Centre, The Entrance Rd, Bateau Bay NSW 2261, Australia"
220,Bateau Bay,2261,Lucky Surf & Supply,cafe,5,13,151.4841135,-33.3589583,"3/417 The Entrance Rd, Bateau Bay NSW 2261, Australia"
221,Batehaven,2536,Crumb Cafe,cafe,4.6,256,150.200066,-35.732765,"2/268 Beach Rd, Batehaven NSW 2536, Australia"
221,Batehaven,2536,Batehaven Bake House,cafe,4.3,127,150.1991552,-35.7322988,"2 Edward Rd, Batehaven NSW 2536, Australia"
222,Batemans Bay,2536,3 Fish Cafe,cafe,3.5,83,150.1764965,-35.7046873,"13 Clyde St, Batemans Bay NSW 2536, Australia"
222,Batemans Bay,2536,Batemans Bay Nut Roasting Co.,cafe,4.4,7,150.177469,-35.7069064,"Shop 8 Citi Centre Arcade, 10 Orient St, Batemans Bay NSW 2536, Australia"
222,Batemans Bay,2536,McDonald's Batemans Bay,cafe,3.3,1198,150.174784,-35.709381,"Cnr Hill &, Vesper St, Batemans Bay NSW 2536, Australia"
222,Batemans Bay,2536,The Industrial Cafe,cafe,5,4,150.1706022,-35.7195093,"6/35 Cranbrook Rd, Batemans Bay NSW 2536, Australia"
222,Batemans Bay,2536,Quays Hotel,cafe,4.4,130,150.185807,-35.713356,"60 Beach Rd, Batemans Bay NSW 2536, Australia"
222,Batemans Bay,2536,Ambers,cafe,5,14,150.177654,-35.709067,"45, Shop 8 Connells Arcade, Orient St, Batemans Bay NSW 2536, Australia"
222,Batemans Bay,2536,Batemans Bay Ice Creamery,cafe,4.5,276,150.1773336,-35.704918,"7 Clyde St, Batemans Bay NSW 2536, Australia"
222,Batemans Bay,2536,The Coffee Club Café - Batemans Bay,cafe,3.2,60,150.1759701,-35.7074996,"Village Centre, Shop G5/1 Perry St, Batemans Bay NSW 2536, Australia"
222,Batemans Bay,2536,Uncle Joe's Cafe,cafe,4.1,188,150.1762668,-35.7062279,"23 Village Centre Perry Street, Batemans Bay NSW 2536, Australia"
222,Batemans Bay,2536,BLANK CANVAS. Good Coffee And Breaks,cafe,4.3,201,150.1786057,-35.7070809,"shop 7/9-11 Orient St, Batemans Bay NSW 2536, Australia"
222,Batemans Bay,2536,GJs Bay Cafe & Grill,cafe,4,159,150.1782531,-35.7061462,"Clyde St, Batemans Bay NSW 2536, Australia"
222,Batemans Bay,2536,Nourish on North,cafe,4.3,69,150.1771252,-35.7061268,"5 North St, Batemans Bay NSW 2536, Australia"
222,Batemans Bay,2536,Tribe Cafe,cafe,4.7,45,150.1940027,-35.7242131,"57 Beach Rd, Batemans Bay NSW 2536, Australia"
222,Batemans Bay,2536,Bay Blue Cafe,cafe,4.3,43,150.1778403,-35.7081119,"2/33 Orient St, Batemans Bay NSW 2536, Australia"
222,Batemans Bay,2536,Starfish,cafe,4.1,479,150.1783885,-35.7058021,"Promenade Plaza, 1 Clyde St, Batemans Bay NSW 2536, Australia"
222,Batemans Bay,2536,The Venetian,cafe,4.6,33,150.177173,-35.70953,"3/32 Orient St, Batemans Bay NSW 2536, Australia"
222,Batemans Bay,2536,Clyde Treats Petite Yum,cafe,3.8,39,150.1775066,-35.7056498,"Shop 3A/1 Clyde St, Batemans Bay NSW 2536, Australia"
222,Batemans Bay,2536,Kidz Biz Playhouse & Cafe,cafe,4.5,31,150.1769636,-35.7047007,"1/11 Clyde St, Batemans Bay NSW 2536, Australia"
222,Batemans Bay,2536,Brew Bar At The Bayview,cafe,3.5,4,150.1777424,-35.7074438,"20 Orient St, Batemans Bay NSW 2536, Australia"
222,Batemans Bay,2536,Chews on Hughes,cafe,4.7,23,150.1769338,-35.7200519,"2/13 Hughes St, Batemans Bay NSW 2536, Australia"
222,Batemans Bay,2536,Go Vita Batemans Bay,cafe,4.4,9,150.1771502,-35.7059596,"5 North St, Batemans Bay NSW 2536, Australia"
224,Bathurst,2795,Nikki's Café On William,cafe,3.8,34,149.581488,-33.4177545,"72 William St, Bathurst NSW 2795, Australia"
224,Bathurst,2795,Banjo's Cafe,cafe,4,88,149.5823176,-33.4170762,"Shop 5, Bathurst City Centre, 80 Bentinck St, Bathurst NSW 2795, Australia"
224,Bathurst,2795,Vanilla Bean Cafe & Restaurant,cafe,4.4,126,149.5804595,-33.4206352,"109 Bentinck St, Bathurst NSW 2795, Australia"
224,Bathurst,2795,The Allyway Cafe,cafe,1,1,149.583287,-33.41763,"38/40 William St, Bathurst NSW 2795, Australia"
224,Bathurst,2795,Good Catch Cafe PTY Ltd.,cafe,4.4,38,149.580493,-33.415274,"1/85 George St, Bathurst NSW 2795, Australia"
224,Bathurst,2795,The Coach House,cafe,4.7,37,149.5801295,-33.4186993,"108 William St, Bathurst NSW 2795, Australia"
224,Bathurst,2795,Pear Tree Wholefoods,cafe,4.9,22,149.5819664,-33.4173007,"Shop 3/64 William St, Bathurst NSW 2795, Australia"
224,Bathurst,2795,The Lunch Runner,cafe,4.7,7,149.5781681,-33.420285,"142 William St, Bathurst NSW 2795, Australia"
224,Bathurst,2795,Bathurst Health Foods,cafe,4.7,9,149.5808607,-33.4156083,"64-66 George St, Bathurst NSW 2795, Australia"
224,Bathurst,2795,McDonald's Bathurst,cafe,3.5,1197,149.5831489,-33.4148055,"69-71 Durham St, Bathurst NSW 2795, Australia"
224,Bathurst,2795,The Oxford Bathurst,cafe,3.9,186,149.5761111,-33.4213889,"170 William St, Bathurst NSW 2795, Australia"
224,Bathurst,2795,The Hen and Bow Espresso Bar,cafe,4.6,35,149.600039,-33.405989,"4/13 Marsden Ln, Bathurst NSW 2795, Australia"
224,Bathurst,2795,Banjos Retreat,cafe,4.6,14,149.5823883,-33.4171433,"64 William St, Bathurst NSW 2795, Australia"
224,Bathurst,2795,Ristretto Bathurst,cafe,4.8,113,149.5803205,-33.4158629,"2/205 Howick St, Bathurst NSW 2795, Australia"
224,Bathurst,2795,Crema on George,cafe,4.5,155,149.577224,-33.4175318,"173 George St, Bathurst NSW 2795, Australia"
224,Bathurst,2795,The Brew Drive-Thru,cafe,4.9,23,149.5856783,-33.4161999,"18 Charlotte St, Bathurst NSW 2795, Australia"
224,Bathurst,2795,Harvest Cafe & Store,cafe,4.4,114,149.5870301,-33.418574,"1 Kendall Ave, Bathurst NSW 2795, Australia"
224,Bathurst,2795,Country Coffee,cafe,4.4,329,149.577968,-33.416693,"161 George St, Bathurst NSW 2795, Australia"
224,Bathurst,2795,Sweet Caramel,cafe,4.5,288,149.5768833,-33.4176917,"185 George St, Bathurst NSW 2795, Australia"
224,Bathurst,2795,Legall Patisserie,cafe,4.7,103,149.5802917,-33.4230287,"56 Keppel St, Bathurst NSW 2795, Australia"
224,Bathurst,2795,The Grind,cafe,4.3,15,149.5775154,-33.4152421,"114 Rankin St, Bathurst NSW 2795, Australia"
224,Bathurst,2795,Banjo Paterson's Cafe,cafe,3.7,27,149.5823568,-33.4170496,"146 William St, Bathurst NSW 2795, Australia"
224,Bathurst,2795,Moubar Vintage,cafe,4.9,18,149.5804493,-33.4175806,"Ribbon Gang Ln, Bathurst NSW 2795, Australia"
224,Bathurst,2795,The Hub,cafe,4.6,509,149.5805771,-33.4232357,"52 Keppel St, Bathurst NSW 2795, Australia"
224,Bathurst,2795,Porters Cafe,cafe,4.6,86,149.5813291,-33.4177562,"76 William St, Bathurst NSW 2795, Australia"
224,Bathurst,2795,Al Dente,cafe,4.5,60,149.5793405,-33.4219761,"88b Keppel St, Bathurst NSW 2795, Australia"
224,Bathurst,2795,Venue Cafe Bar,cafe,3.9,157,149.5820596,-33.418078,"210 Howick St, Bathurst NSW 2795, Australia"
224,Bathurst,2795,"Bake, Table & Tea",cafe,4.7,92,149.5792765,-33.4164412,"76 George St, Bathurst NSW 2795, Australia"
224,Bathurst,2795,Piccolo's on William,cafe,4.4,281,149.5822246,-33.4171804,"40 William St, Bathurst NSW 2795, Australia"
224,Bathurst,2795,Brilliant Street Cafe,cafe,4.5,74,149.5643988,-33.4189784,"287A Brilliant St, Bathurst NSW 2795, Australia"
224,Bathurst,2795,Hometown Cafe Bathurst,cafe,4.8,50,149.5829706,-33.4166533,"Shop 1/38 William St, Bathurst NSW 2795, Australia"
224,Bathurst,2795,Doppio,cafe,4.9,29,149.5822432,-33.4243449,"11 Keppel St, Bathurst NSW 2795, Australia"
224,Bathurst,2795,Muffin Break Bathurst,cafe,3.9,18,149.5829364,-33.4178892,"121 Howick St, Bathurst NSW 2795, Australia"
226,Batlow,2730,Coffee and More,cafe,4.3,54,148.1466211,-35.51968919999999,"33A Pioneer St, Batlow NSW 2730, Australia"
226,Batlow,2730,Batlow Cafe,cafe,4.4,16,148.146784,-35.520933,"56 Pioneer St, Batlow NSW 2730, Australia"
226,Batlow,2730,Poppy's Oven,cafe,3,1,148.1458953,-35.5205141,"5 Batlow Rd, Batlow NSW 2730, Australia"
227,Baulkham Hills,2153,Chatime Norwest,cafe,4.4,48,150.962505,-33.733002,"Shop T31A, Norwest Marketown, 4 Century Cct, Baulkham Hills NSW 2153, Australia"
227,Baulkham Hills,2153,MINT FRESH IGA Baker Crs Plus Liquor,cafe,4.3,63,151.0030706,-33.7567714,"34/36 Baker Cres, Baulkham Hills NSW 2153, Australia"
227,Baulkham Hills,2153,Comma Coffee | Hills,cafe,4.7,13,150.9605807,-33.7343002,"1 Solent Cct, Baulkham Hills NSW 2153, Australia"
227,Baulkham Hills,2153,Michel's Baulkham Hills,cafe,3.9,50,150.9628044,-33.7333227,"T25/4 Century Cct, Baulkham Hills NSW 2153, Australia"
227,Baulkham Hills,2153,Nexus Cafe & Function Centre,cafe,4.4,89,150.9698761,-33.7310864,"4 Columbia Ct, Baulkham Hills NSW 2153, Australia"
227,Baulkham Hills,2153,TwentyTwo Café Bar & Grill,cafe,3.5,37,150.9677416,-33.7339055,"22 Brookhollow Ave, Baulkham Hills NSW 2153, Australia"
227,Baulkham Hills,2153,V Cafe,cafe,3,1,150.9709359,-33.732858,"2-8 Brookhollow Ave, Baulkham Hills NSW 2153, Australia"
227,Baulkham Hills,2153,The Farm Norwest Cafe,cafe,3.5,96,150.9626983,-33.7332,"4 Century Cct, Baulkham Hills NSW 2153, Australia"
227,Baulkham Hills,2153,Caffe Cherry Beans Bella Vista,cafe,3.6,84,150.9631546,-33.7327992,"Norwest Marketown, 4 Century Cct, Baulkham Hills NSW 2153, Australia"
227,Baulkham Hills,2153,Café Maurice,cafe,4.1,27,150.9713478,-33.7305323,"3 Columbia Ct, Baulkham Hills NSW 2153, Australia"
227,Baulkham Hills,2153,The RED Estate Coffee Roasters,cafe,4.5,42,150.9651628,-33.7316527,"Gnd floor, Macarthur Point, 25-27 Solent Cct, Baulkham Hills NSW 2153, Australia"
227,Baulkham Hills,2153,Zest Patisserie,cafe,4.8,19,150.9908976,-33.7593068,"375-383 Windsor Rd, Baulkham Hills NSW 2153, Australia"
227,Baulkham Hills,2153,#Parkview Cafe,cafe,3.7,6,150.9669562,-33.7307974,"1 Maitland Pl, Baulkham Hills NSW 2153, Australia"
227,Baulkham Hills,2153,Gloria Jean's Coffees Versatile,cafe,3.8,116,150.9463948,-33.7336978,"G04 VersatileCorner Lexington Drive &, Meridian Pl, Baulkham Hills NSW 2153, Australia"
227,Baulkham Hills,2153,Little Rock Cafe,cafe,4.2,313,150.9927182,-33.7591533,"375-383 Windsor Rd, Baulkham Hills NSW 2153, Australia"
227,Baulkham Hills,2153,Arthur Street Cafe,cafe,4.4,440,150.9903183,-33.7647463,"26 Arthur St, Baulkham Hills NSW 2153, Australia"
227,Baulkham Hills,2153,Caffe Cherry Beans,cafe,3.5,34,150.9915552,-33.7590552,"Stockland Mall Kiosk 2&3, 375-383 Windsor Rd, Baulkham Hills NSW 2153, Australia"
227,Baulkham Hills,2153,Muffin Break Baulkham Hills,cafe,3.8,51,150.9909776,-33.75942000000001,"Stockland Baulkham Hills Corner Olive Street &, Old Northern Rd, Baulkham Hills NSW 2153, Australia"
227,Baulkham Hills,2153,Charlie Lovett,cafe,4.1,145,150.9927063,-33.7593765,"34-50 Old Northern Rd, Baulkham Hills NSW 2153, Australia"
227,Baulkham Hills,2153,The Coffee Club Café - Norwest Business Park,cafe,3.9,400,150.9706101,-33.7326712,"Shop G03/2-8 Brookhollow Ave, Baulkham Hills NSW 2153, Australia"
227,Baulkham Hills,2153,Piccolo Me Bella Vista,cafe,4.1,83,150.9585839,-33.7369264,"62 Norwest Blvd, Baulkham Hills NSW 2153, Australia"
227,Baulkham Hills,2153,Gloria Jean's Coffees Norwest Marketown,cafe,3.6,84,150.962702,-33.733398,"23B Norwest Blvd, Baulkham Hills NSW 2153, Australia"
229,Bawley Point,2539,Bawley Cafe,cafe,3.7,64,150.391084,-35.507785,"18 Murramarang Rd, Bawley Point NSW 2539, Australia"
232,Bayview,2104,8 knots cafe,cafe,4.7,78,151.2985088,-33.6592212,"6/1710 Pittwater Rd, Bayview NSW 2104, Australia"
233,Beacon Hill,2100,McDonald's Beacon Hill,cafe,3.8,841,151.260772,-33.75398,"164 Warringah Rd, Beacon Hill NSW 2100, Australia"
245,Beecroft,2119,Cafe Long Shot,cafe,4.3,229,151.065695,-33.7491856,"18/6-8 Hannah St, Beecroft NSW 2119, Australia"
245,Beecroft,2119,three beans Cafe,cafe,4.4,116,151.065024,-33.749253,"Shop 5.103/18 Hannah St, Beecroft NSW 2119, Australia"
245,Beecroft,2119,Beehive Cafe Restaurant,cafe,4.4,158,151.064911,-33.7501139,"4/1A Wongala Cres, Beecroft NSW 2119, Australia"
245,Beecroft,2119,Espresso recipe,cafe,4.8,31,151.0656041,-33.7487855,"28/6-8 Hannah St, Beecroft NSW 2119, Australia"
245,Beecroft,2119,Chicken & Fishhead- Cafe and Kidswear,cafe,4.3,81,151.065457,-33.750074,"3 Wongala Cres, Beecroft NSW 2119, Australia"
245,Beecroft,2119,Buongiorno Beecroft,cafe,4.7,13,151.065712,-33.74852,"6-8 Hannah St, Beecroft NSW 2119, Australia"
245,Beecroft,2119,"Macchina Espresso, Beecroft",cafe,3.4,45,151.0651153,-33.7492963,"shop 10/18 Hannah St, Beecroft NSW 2119, Australia"
245,Beecroft,2119,Harvest Specialty Coffee,cafe,4.8,85,151.0655586,-33.7499334,"7/5 Wongala Cres, Beecroft NSW 2119, Australia"
245,Beecroft,2119,Positano Cafe Pizzeria,cafe,4.1,70,151.065411,-33.749191,"14 Hannah St, Beecroft NSW 2119, Australia"
245,Beecroft,2119,Dee Fruity Garden,cafe,4.5,8,151.0646487,-33.7493012,"Beecroft NSW 2119, Australia"
249,Bega,2550,Cafe Evolve,cafe,4.2,149,149.8413854,-36.6741298,"210 Carp St, Bega NSW 2550, Australia"
249,Bega,2550,The Coffee House Cafe,cafe,4.5,22,149.840988,-36.674808,"106 Auckland St, Bega NSW 2550, Australia"
249,Bega,2550,Red Cafe,cafe,4.6,53,149.8427522,-36.6740012,"161 Carp St, Bega NSW 2550, Australia"
249,Bega,2550,Bankin' Beans,cafe,4.6,9,149.8421575,-36.6743515,"172 Carp St, Bega NSW 2550, Australia"
249,Bega,2550,Hudsons Coffee,cafe,4.3,35,149.8589202,-36.6894211,"South East Regional Hospital, Tathra Rd, Bega NSW 2550, Australia"
249,Bega,2550,Nook Tea & Espresso Bar,cafe,4.6,67,149.8424428,-36.674242,"158 Carp St, Bega NSW 2550, Australia"
249,Bega,2550,Wassim's Phoenician Street Food,cafe,4.7,35,149.8403562,-36.6751754,"149 Auckland St, Bega NSW 2550, Australia"
249,Bega,2550,THE Hook Inn,cafe,4.5,8,149.8251153,-36.6662975,"12 West St, Bega NSW 2550, Australia"
249,Bega,2550,McDonald's Bega,cafe,3.6,426,149.8373976,-36.6738433,"1/7 Swan St, Bega NSW 2550, Australia"
253,Belfield,2191,Cafe Belfield,cafe,4.2,94,151.0840286,-33.9031445,"2/24 Burwood Rd, Belfield NSW 2191, Australia"
253,Belfield,2191,Bricklane N12,cafe,4.5,111,151.083728,-33.9026585,"12 Burwood Rd, Belfield NSW 2191, Australia"
259,Bella Vista,2153,Ya Ghetto,cafe,4.6,25,150.9452776,-33.7339272,"F78a / 24, 32 Lexington Dr, Bella Vista NSW 2153, Australia"
259,Bella Vista,2153,Roelof Cafe and Catering,cafe,4.4,7,150.966608,-33.730791,"5/1 Maitland Pl, Bella Vista NSW 2153, Australia"
259,Bella Vista,2153,Good Fella Coffee,cafe,4.7,229,150.9462008,-33.7319084,"g07/5 Celebration Dr, Bella Vista NSW 2153, Australia"
259,Bella Vista,2153,Café Mckels,cafe,3.8,105,150.952285,-33.745745,"1 Circa Boulevarde, Bella Vista NSW 2153, Australia"
259,Bella Vista,2153,The Bella Local,cafe,4.6,63,150.94569,-33.73273200000001,"g03/33 Lexington Dr, Bella Vista NSW 2153, Australia"
259,Bella Vista,2153,The Rusty Flute,cafe,4.4,132,150.9457286,-33.734452,"a6/24-32 Lexington Dr, Bella Vista NSW 2153, Australia"
259,Bella Vista,2153,The Stage Door Espresso Bar,cafe,4.8,46,150.9468977,-33.7364821,"14 Lexington Dr, Bella Vista NSW 2153, Australia"
259,Bella Vista,2153,Chef's Cafe,cafe,4.4,126,150.9454994,-33.734158,"24-32 Lexington Dr, Bella Vista NSW 2153, Australia"
259,Bella Vista,2153,Hudsons Coffee,cafe,4.3,15,150.9543725,-33.7449621,"Norwest Private Hospital, 11 Norbrik Dr, Bella Vista NSW 2153, Australia"
259,Bella Vista,2153,il Puntino Espresso,cafe,5,1,150.9449119,-33.7333428,"Building E Lexington Corporate II Podium Level, 24 - 32 Lexington Drive, Bella Vista NSW 2153, Australia"
259,Bella Vista,2153,Cafe Peregrine,cafe,4.1,22,150.947049,-33.7366619,"127/14-16 Lexington Dr, Bella Vista NSW 2153, Australia"
259,Bella Vista,2153,Woolworths Food Quarter Cafe,cafe,3.8,4,150.9504994,-33.7364469,"1 Lexington Dr, Bella Vista NSW 2153, Australia"
259,Bella Vista,2153,Mr. C Cafe,cafe,5,27,150.9454246,-33.7339136,"h141/24-32 Lexington Dr, Bella Vista NSW 2153, Australia"
259,Bella Vista,2153,Bella Vista Hotel,cafe,3.9,1600,150.948141,-33.7364387,"13-15 Lexington Dr, Bella Vista NSW 2153, Australia"
259,Bella Vista,2153,XO Rolls,cafe,4.8,28,150.9448616,-33.7334076,"202/32 Lexington Dr, Bella Vista NSW 2153, Australia"
259,Bella Vista,2153,Mcdonald's Norwest II,cafe,3.4,777,150.9492873,-33.7384939,"2 Lexington Dr, Bella Vista NSW 2153, Australia"
259,Bella Vista,2153,Jazzveh Woodfired Pizza,cafe,4.2,117,150.9462806,-33.7318709,"G.03/5 Celebration Dr, Bella Vista NSW 2153, Australia"
259,Bella Vista,2153,The Alchemy CBR,cafe,0,0,150.9451957,-33.7339952,"f116/24-32 Lexington Dr, Bella Vista NSW 2153, Australia"
260,Bellambi,2518,Olive's,cafe,4.5,142,150.919974,-34.3642179,"Morgan Pl, Bellambi NSW 2518, Australia"
260,Bellambi,2518,GF Eats,cafe,4.8,83,150.9112137,-34.3683988,"203 Rothery St, Bellambi NSW 2518, Australia"
267,Bellevue Hill,2023,CRAVE Deli Cafe,cafe,4.5,17,151.2521649,-33.8823756,"98G Bellevue Rd, Bellevue Hill NSW 2023, Australia"
267,Bellevue Hill,2023,Blip Cafe,cafe,4.1,54,151.2584209,-33.8864371,"9/7-9 Bellevue Rd, Bellevue Hill NSW 2023, Australia"
267,Bellevue Hill,2023,Pasta Pantry Bellevue Hill,cafe,4,126,151.2573436,-33.8860499,"23 Bellevue Rd, Bellevue Hill NSW 2023, Australia"
267,Bellevue Hill,2023,The Grumpy Baker,cafe,3.9,70,151.2572303,-33.8859678,"27A Bellevue Rd, Bellevue Hill NSW 2023, Australia"
267,Bellevue Hill,2023,Bru Coffee,cafe,0,0,151.258845,-33.8894009,"Old South Head Rd, Bellevue Hill NSW 2023, Australia"
269,Bellingen,2454,HYDE Bellingen,cafe,4.6,144,152.8967261,-30.45234809999999,"62 Hyde St, Bellingen NSW 2454, Australia"
269,Bellingen,2454,Amelia Franklin,cafe,4.8,5,152.8958112,-30.4520004,"84-90 Hyde St, Bellingen NSW 2454, Australia"
269,Bellingen,2454,Old Butter Factory Cafe,cafe,4.3,518,152.9097239,-30.4527068,"1 Doepel St, Bellingen NSW 2454, Australia"
269,Bellingen,2454,5 Church Street,cafe,4.3,235,152.8969325,-30.451402,"2454/5 Church St, Bellingen NSW 2454, Australia"
269,Bellingen,2454,Black Bear,cafe,4.6,126,152.89692,-30.451806,"7F Church St, Bellingen NSW 2454, Australia"
269,Bellingen,2454,The Purple Carrot,cafe,4.4,111,152.8954274,-30.4513238,"105 Hyde St, Bellingen NSW 2454, Australia"
269,Bellingen,2454,THE FENNEL SEED,cafe,4.3,83,152.8969085,-30.4515169,"7 Church St, Bellingen NSW 2454, Australia"
269,Bellingen,2454,People Of Coffee,cafe,4.7,22,152.8958112,-30.4520004,"86 Hyde St, Bellingen NSW 2454, Australia"
269,Bellingen,2454,Bellingen Qudo Cafe and Sake,cafe,4.7,151,152.8945436,-30.4504201,"121 Hyde St, Bellingen NSW 2454, Australia"
269,Bellingen,2454,The Bellingen Gelato Bar,cafe,4.7,113,152.895505,-30.45151,"101 Hyde St, Bellingen NSW 2454, Australia"
269,Bellingen,2454,Cedar Bar & Kitchen,cafe,4.6,190,152.897299,-30.452781,"8 Church St, Bellingen NSW 2454, Australia"
269,Bellingen,2454,Bello Burgers,cafe,4.7,44,152.896919,-30.4516722,"7c Church St, Bellingen NSW 2454, Australia"
272,Belmont,2280,Common Circus,cafe,4.5,227,151.657262,-33.0343576,"36 Brooks Parade, Belmont NSW 2280, Australia"
272,Belmont,2280,Cafe Macquarie,cafe,4.2,144,151.65952,-33.036171,"26 Macquarie St, Belmont NSW 2280, Australia"
272,Belmont,2280,Sotos Tea & Coffee Bar,cafe,4.7,86,151.657012,-33.028296,"45 Evans St, Belmont NSW 2280, Australia"
272,Belmont,2280,Double Shot Express'o,cafe,4.1,21,151.6610038,-33.0353979,"553 Pacific Hwy, Belmont NSW 2280, Australia"
272,Belmont,2280,Fused Cafe Belmont,cafe,2.7,3,151.6594826,-33.0368284,"Central shopping centre, shop 28 Belmont, 1 Singleton St, Belmont NSW 2280, Australia"
272,Belmont,2280,Café Alejandra,cafe,4.9,25,151.6595125,-33.0373211,"Shop 4/600 Pacific Hwy, Belmont NSW 2280, Australia"
272,Belmont,2280,Crusoe's on the Lake,cafe,4,235,151.6551823,-33.0398257,"Lake Macquarie Yacht Club, Ada St, Belmont NSW 2280, Australia"
272,Belmont,2280,McDonald's Belmont NSW,cafe,3.2,691,151.661207,-33.0346332,"Cnr Pacific Highway &, Glover St, Belmont NSW 2280, Australia"
273,Belmont North,2280,Zarraffa's Coffee Belmont North,cafe,4.6,304,151.6640785,-33.0245821,"397 Pacific Hwy, Belmont North NSW 2280, Australia"
274,Belmont South,2280,Mischief Kitchen,cafe,4.6,57,151.6553937,-33.0497104,"787 Pacific Hwy, Belmont South NSW 2280, Australia"
275,Belmore,2192,Jobel's Cafe,cafe,4,136,151.0889253,-33.9189376,"1/400 Burwood Rd, Belmore NSW 2192, Australia"
275,Belmore,2192,Belmore Grounds Cafe,cafe,4,38,151.088522,-33.918375,"380 Burwood Rd, Belmore NSW 2192, Australia"
275,Belmore,2192,Raw coffee bar,cafe,4.8,51,151.0891903,-33.9195265,"426 Burwood Rd, Belmore NSW 2192, Australia"
275,Belmore,2192,Bakehouse Cafe,cafe,3.5,38,151.0873801,-33.9187308,"60 Bridge Rd, Belmore NSW 2192, Australia"
275,Belmore,2192,Rust Bucket,cafe,4.5,191,151.0877261,-33.9160641,"shop 21/335-337 Burwood Rd, Belmore NSW 2192, Australia"
275,Belmore,2192,Pickles Courtyard Cafe,cafe,3.9,13,151.0975326,-33.9261986,"54 Kingsgrove Rd, Belmore NSW 2192, Australia"
275,Belmore,2192,Elements Espresso Bar,cafe,4.9,16,151.0871972,-33.9159837,"308 Burwood Rd, Belmore NSW 2192, Australia"
275,Belmore,2192,The Bulldog Belmore,cafe,4.5,47,151.0885154,-33.9182355,"376 Burwood Rd, Belmore NSW 2192, Australia"
275,Belmore,2192,The Eatery & Co,cafe,4.2,114,151.0987156,-33.9290751,"104 Kingsgrove Rd, Belmore NSW 2192, Australia"
279,Belrose,2085,The New Civic,cafe,3.9,103,151.2103441,-33.7393274,"t30/56-58 Glen St, Belrose NSW 2085, Australia"
279,Belrose,2085,Three Beans Glenrose Villiage,cafe,3.5,24,151.2098811,-33.739129,"Kiosk 1/56-58 Glen St, Belrose NSW 2085, Australia"
279,Belrose,2085,Burrow Cafe,cafe,4.6,45,151.2124867,-33.7061302,"13A Narabang Way, Belrose NSW 2085, Australia"
279,Belrose,2085,Scanccelli Cafe,cafe,2.7,37,151.2133906,-33.7034603,"Belrose Super Centre, 1.20 Forest Way, Belrose NSW 2085, Australia"
279,Belrose,2085,Taste Baguette,cafe,3.6,97,151.2106361,-33.7392301,"t20/56-58 Glen St, Belrose NSW 2085, Australia"
279,Belrose,2085,The Flavour Mill,cafe,3.2,79,151.2133359,-33.7036057,"Shop G16, Supa Centa, Belrose NSW 2085, Australia"
279,Belrose,2085,Michel's Glenrose Village,cafe,3.7,9,151.2103764,-33.7388404,"Kiosk 4, Glenrose Village, Glenrose Village Shopping Centre, 56/58 Glen St, Belrose NSW 2085, Australia"
279,Belrose,2085,Café Minna,cafe,4.1,15,151.2097719,-33.703069,"2 Minna Cl, Belrose NSW 2085, Australia"
279,Belrose,2085,Belrose Hotel,cafe,3.9,693,151.2194506,-33.732994,"5 Hews Parade, Belrose NSW 2085, Australia"
281,Bemboka,2550,Drovers Rest Cafe,cafe,4.7,55,149.567115,-36.625704,"94 Loftus St, Bemboka NSW 2550, Australia"
281,Bemboka,2550,Scotch Oven,cafe,4.7,13,149.569664,-36.6273478,"78 Loftus St, Bemboka NSW 2550, Australia"
286,Bendemeer,2355,Beez Kneez Cafe,cafe,5,2,151.1583853,-30.880671,"19 Havannah St, Bendemeer NSW 2355, Australia"
292,Bennetts Green,2290,Harvey's Cafe,cafe,4.3,44,151.6894603,-32.9947087,"5 Abdon Cl, Bennetts Green NSW 2290, Australia"
292,Bennetts Green,2290,Andre's Gym,cafe,4.6,11,151.6935839,-32.9970692,"1/26 Templar Pl, Bennetts Green NSW 2290, Australia"
294,Bensville,2251,Bottletree Kitchen,cafe,4.7,62,151.3815547,-33.4988442,"32 Kallaroo Rd, Bensville NSW 2251, Australia"
296,Berala,2141,Sapphire Espresso Bar,cafe,4.4,46,151.0324997,-33.8714515,"3/157 Woodburn Rd, Berala NSW 2141, Australia"
296,Berala,2141,Gloria Jeans Coffee's,cafe,3.7,164,151.0325642,-33.8712718,"6/157 Woodburn Rd, Berala NSW 2141, Australia"
296,Berala,2141,Fresh Aroma Cafe,cafe,4.4,23,151.025398,-33.87581,"334A Park Rd, Berala NSW 2141, Australia"
296,Berala,2141,Tea Mates,cafe,5,7,151.0320004,-33.871268,"1/154 Woodburn Rd, Berala NSW 2141, Australia"
297,Berambing,2758,The Hive Berambing,cafe,4.6,179,150.4397962,-33.5371651,"6-18 Bells Line of Rd, Berambing NSW 2758, Australia"
298,Beresfield,2322,Coffee on Lawson,cafe,4.9,40,151.6579379,-32.8007528,"3/27 Lawson Ave, Beresfield NSW 2322, Australia"
298,Beresfield,2322,Energy Cafe,cafe,2.7,12,151.6395105,-32.811538,"2 Kinta Dr, Beresfield NSW 2322, Australia"
298,Beresfield,2322,Local Coffee Man,cafe,4.3,8,151.6461413,-32.80548630000001,"37 Enright St, Beresfield NSW 2322, Australia"
300,Berkeley,2506,Dew Drop Inn Tea House,cafe,3.7,52,150.8481641,-34.4658655,"180 Berkeley Rd, Berkeley NSW 2506, Australia"
301,Berkeley Vale,2261,Lana's Cafe,cafe,4.8,48,151.4376423,-33.3393448,"256 Lakedge Ave, Berkeley Vale NSW 2261, Australia"
301,Berkeley Vale,2261,Cafe Mj's,cafe,4.7,19,151.4441531,-33.3606324,"7/5 Tumbi Creek Rd, Berkeley Vale NSW 2261, Australia"
301,Berkeley Vale,2261,Lunch At Shelly's,cafe,4,10,151.4273457,-33.3292388,"1 Enterprise Dr, Berkeley Vale NSW 2261, Australia"
301,Berkeley Vale,2261,SuperSupps,cafe,4.8,50,151.4445559,-33.3594682,"3/9 Tumbi Creek Rd, Berkeley Vale NSW 2261, Australia"
301,Berkeley Vale,2261,Bj's cafe and takeaway,cafe,0,0,151.4232567,-33.3290084,"8 Apprentice Dr, Berkeley Vale NSW 2261, Australia"
304,Bermagui,2546,Beardhawk Coffee,cafe,5,24,150.0646992,-36.4221424,"2/3 Wallaga Lake Rd, Bermagui NSW 2546, Australia"
304,Bermagui,2546,Eat.Drink.Neighbourhood,cafe,4.4,32,150.0777408,-36.427088,"6/28 Wallaga St, Bermagui NSW 2546, Australia"
304,Bermagui,2546,Mister Hope,cafe,3.2,239,150.0761362,-36.4275919,"4 Bunga St, Bermagui NSW 2546, Australia"
304,Bermagui,2546,Bermi's Beachside Cafe,cafe,4.4,211,150.0791792,-36.4258481,"2/4 Lamont St, Bermagui NSW 2546, Australia"
304,Bermagui,2546,"The River Rock Cafe & Surf Lessons, Bermagui, NSW, Australia",cafe,4.7,19,150.0646028,-36.4225862,"2/3 Wapengo St, Bermagui NSW 2546, Australia"
304,Bermagui,2546,Eurolicious,cafe,4.6,34,150.0773134,-36.4269769,"2/30 Lamont St, Bermagui NSW 2546, Australia"
304,Bermagui,2546,Gulaga Organics,cafe,4.9,22,150.0793207,-36.4257538,"2/2-6 Lamont St, Bermagui NSW 2546, Australia"
304,Bermagui,2546,Eastwood's Cafe and Cooking School,cafe,4.7,32,150.0758382,-36.429134,"1/26 Bunga St, Bermagui NSW 2546, Australia"
304,Bermagui,2546,The Sundeck at Bermagui,cafe,3.9,81,150.071372,-36.426658,"79/73 Lamont St, Bermagui NSW 2546, Australia"
304,Bermagui,2546,Boneless Vegetarian Cafe,cafe,4.8,72,150.0782214,-36.4263753,"1/14 Lamont St, Bermagui NSW 2546, Australia"
304,Bermagui,2546,Bermagui Fishermen's Wharf,cafe,4.5,411,150.0713572,-36.4266327,"73-79 Lamont St, Bermagui NSW 2546, Australia"
305,Berowra,2081,Wise Monkey Cafe,cafe,4.3,279,151.151298,-33.62364100000001,"4 Berowra Waters Rd, Berowra NSW 2081, Australia"
307,Berowra Heights,2082,Cafe Laurella,cafe,4.4,75,151.1385131,-33.6125021,"7a/1c Turner Rd, Berowra Heights NSW 2082, Australia"
307,Berowra Heights,2082,CoHo Berowra,cafe,4.4,81,151.1388376,-33.6127348,"Shop 11/1c Turner Rd, Berowra Heights NSW 2082, Australia"
307,Berowra Heights,2082,Darcie's Cafe,cafe,4.9,46,151.1367438,-33.6122524,"3/15 Turner Rd, Berowra Heights NSW 2082, Australia"
308,Berowra Waters,2082,Berowra Waters Fish Cafe,cafe,4.1,428,151.1207215,-33.5994709,"199 Bay Rd, Berowra Waters NSW 2082, Australia"
313,Berridale,2628,Whisk & Cocoa,cafe,4.5,91,148.8266878,-36.3656014,"2/70 Jindabyne Rd, Berridale NSW 2628, Australia"
315,Berrigan,2712,Blue Door Cafe,cafe,4.9,34,145.8119347,-35.6573207,"72 Jerilderie St, Berrigan NSW 2712, Australia"
315,Berrigan,2712,Berrigan Fuel & Newsagent,cafe,4,2,145.8163697,-35.664545,"160-162 Jerilderie St, Berrigan NSW 2712, Australia"
317,Berrima,2577,Berrima General Store & Café,cafe,4.3,141,150.3372222,-34.4877778,"1/13 Old Hume Hwy, Berrima NSW 2577, Australia"
317,Berrima,2577,Little Hand Stirred Jam Shop,cafe,4.7,91,150.3379256,-34.4871647,"1/9 Old Hume Hwy, Berrima NSW 2577, Australia"
317,Berrima,2577,The Courtyard Cafe Berrima,cafe,4.4,211,150.3379368,-34.4875319,"Shop 2-4/Lot 117 Old Hume Hwy, Berrima NSW 2577, Australia"
317,Berrima,2577,Josh's Cafe,cafe,4.6,152,150.3380368,-34.4870952,"9 Old Hume Hwy, Berrima NSW 2577, Australia"
317,Berrima,2577,Gumnut Patisserie,cafe,4.3,160,150.3353424,-34.4896167,"1 Old Hume Hwy, Berrima NSW 2577, Australia"
317,Berrima,2577,The Bee & Bear Cafe,cafe,5,16,150.3371954,-34.4880746,"Shop 5/15 Old Hume Hwy, Berrima NSW 2577, Australia"
317,Berrima,2577,Magpie Cafe,cafe,3.7,275,150.3355573,-34.4891079,"28 Old Hume Hwy, Berrima NSW 2577, Australia"
317,Berrima,2577,Two Skinny Cooks,cafe,4.6,14,150.3334973,-34.4852707,"42 Oxley St, Berrima NSW 2577, Australia"
317,Berrima,2577,Berrima Vaults Cafe,cafe,5,2,150.337357,-34.487634,"11 Old Hume Hwy, Berrima NSW 2577, Australia"
319,Berry,2535,Hedgehogs Coffee Shop,cafe,4.1,153,150.6971016,-34.7757077,"4/98 Queen St, Berry NSW 2535, Australia"
319,Berry,2535,Figbird Cafe & Deli,cafe,4.2,182,150.6964278,-34.77459169999999,"4/58 Albert St, Berry NSW 2535, Australia"
319,Berry,2535,Milkwood Bakery,cafe,4.2,196,150.6972058,-34.7754454,"109 Queen St, Berry NSW 2535, Australia"
319,Berry,2535,The Berry Tea Shop,cafe,4.7,219,150.697247,-34.774814,"1/66 Albert St, Berry NSW 2535, Australia"
319,Berry,2535,Berry Pie Shop,cafe,4.3,47,150.697188,-34.7753166,"2/109 Queen St, Berry NSW 2535, Australia"
319,Berry,2535,IV Coffee,cafe,5,40,150.6975722,-34.7753721,"117 Queen St, Berry NSW 2535, Australia"
319,Berry,2535,Il Locale Gelato Cafe,cafe,4.7,73,150.6979501,-34.7757892,"114 Queen St, Berry NSW 2535, Australia"
319,Berry,2535,Emporium Food Co.,cafe,4.3,65,150.6980322,-34.7755634,"127 Queen St, Berry NSW 2535, Australia"
319,Berry,2535,Berry Chocolatier,cafe,4.6,73,150.6974274,-34.7753292,"4/113 Queen St, Berry NSW 2535, Australia"
319,Berry,2535,Salmon & Co Eatery,cafe,3.6,33,150.694657,-34.775086,"71 Queen St, Berry NSW 2535, Australia"
319,Berry,2535,Berry Jetz,cafe,2.4,86,150.6969421,-34.77571289999999,"1/94 Queen St, Berry NSW 2535, Australia"
319,Berry,2535,Nourish Kitchen + Lifestyle,cafe,4.6,20,150.697537,-34.7747445,"3/68 Albert St, Berry NSW 2535, Australia"
319,Berry,2535,Just Delicious,cafe,3.9,50,150.6969974,-34.7746802,"3/62 Albert St, Berry NSW 2535, Australia"
319,Berry,2535,The Garden Berry,cafe,4.3,178,150.6970435,-34.7754006,"103 Queen St, Berry NSW 2535, Australia"
319,Berry,2535,Berry Hotel,cafe,4,596,150.6982237,-34.7758368,"120 Queen St, Berry NSW 2535, Australia"
325,Bethungra,2590,The Olde School T-house ( bethungra ),cafe,4.5,38,147.855901,-34.760997,"50 Baylis St, Bethungra NSW 2590, Australia"
328,Beverly Hills,2209,Oliver Brown Beverly Hills,cafe,3.7,332,151.0827844,-33.9514838,"544 King Georges Rd, Beverly Hills NSW 2209, Australia"
328,Beverly Hills,2209,Cafe Aussie in Beverly Hills NSW,cafe,4.8,22,151.080922,-33.950157,"5/423 King Georges Rd, Beverly Hills NSW 2209, Australia"
328,Beverly Hills,2209,The Corner Grind Cafe,cafe,4.6,39,151.0815079,-33.9482252,"34 Tooronga Terrace, Beverly Hills NSW 2209, Australia"
328,Beverly Hills,2209,Gilt,cafe,4.5,38,151.0811419,-33.94943960000001,"482 King Georges Rd, Beverly Hills NSW 2209, Australia"
328,Beverly Hills,2209,BeanYet Espresso Bar,cafe,4.7,10,151.0811285,-33.9485466,"20 Tooronga Terrace, Beverly Hills NSW 2209, Australia"
329,Bewong,2540,Bewong Roadhouse,cafe,3.9,80,150.5332276,-35.0858745,"2399 Princes Hwy, Bewong NSW 2540, Australia"
331,Bexley,2207,GLOW Carwash & Cafe Bexley,cafe,4.4,17,151.1284581,-33.9444147,"295 Forest Rd, Bexley NSW 2207, Australia"
331,Bexley,2207,Urban Grain Coffee & Eatery,cafe,0,0,151.1259064,-33.9503898,"483 Forest Rd, Bexley NSW 2207, Australia"
331,Bexley,2207,Bah Xpress Coffee n BBQ,cafe,5,5,151.128691,-33.944127,"287 Forest Rd, Bexley NSW 2207, Australia"
331,Bexley,2207,Cusano Espresso,cafe,4,32,151.1267528,-33.9498264,"37 Albyn St, Bexley NSW 2207, Australia"
331,Bexley,2207,Café on Harrow,cafe,4,2,151.132616,-33.955224,"1-11 Connemarra St, Bexley NSW 2207, Australia"
331,Bexley,2207,Collective Cafe,cafe,4.4,17,151.1173195,-33.9598889,"646A Forest Rd, Bexley NSW 2207, Australia"
331,Bexley,2207,McDonald's Bexley,cafe,3.4,985,151.121967,-33.952573,"543 Forest Rd, Bexley NSW 2207, Australia"
331,Bexley,2207,Oporto,cafe,4.3,593,151.1149814,-33.9493965,"70 Preddys Rd, Bexley NSW 2207, Australia"
332,Bexley North,2207,Shaw St Espresso,cafe,4.6,101,151.11355,-33.938269,"15 Shaw St, Bexley North NSW 2207, Australia"
332,Bexley North,2207,Cultura Tea Coffee & Gifts,cafe,4.9,13,151.1139012,-33.9383131,"289 Bexley Rd, Bexley North NSW 2207, Australia"
332,Bexley North,2207,German Butchery Deli & Café,cafe,4.5,59,151.1144506,-33.938978,"1/2-6 Sarsfield Cct, Bexley North NSW 2207, Australia"
332,Bexley North,2207,Mother’s Delite Greek Cafe & Catering,cafe,4.4,15,151.1150112,-33.9387877,"14/20 Sarsfield Cct, Bexley North NSW 2207, Australia"
332,Bexley North,2207,Angelo Anestis Aquatic Centre (Bexley Aquatic),cafe,4.2,238,151.113997,-33.9473878,"98C Preddys Rd, Bexley North NSW 2207, Australia"
339,Bidwill,2770,Ranch cafe,cafe,5,3,150.8231396,-33.7326116,"Bidwill Square, Bidwill NSW 2770, Australia"
348,Bilambil Heights,2486,Frankie's Cafe,cafe,5,8,153.485159,-28.215477,"Shop 3/71 Simpson Dr, Bilambil Heights NSW 2486, Australia"
350,Bilgola Beach,2107,Zubi at Billy's,cafe,4.3,176,151.3267987,-33.6456528,"Bilgola Beach Kiosk, The Serpentine, Bilgola Beach NSW 2107, Australia"
351,Bilgola Plateau,2107,The Deli Bilgola,cafe,4.2,45,151.3134309,-33.6463573,"211 Plateau Rd, Bilgola Plateau NSW 2107, Australia"
355,Billinudgel,2483,The Bean Van,cafe,5,18,153.5228029,-28.4920367,"Yelgun Rest area, M1, Billinudgel NSW 2483, Australia"
358,Bilpin,2758,Tutti Fruitti at Bilpin,cafe,4.2,137,150.575331,-33.51398700000001,"1917 Bells Line of Rd, Bilpin NSW 2758, Australia"
358,Bilpin,2758,Bilpin Apple Pie Cottage Orchard Caffe,cafe,3.4,199,150.4612747,-33.5213995,"3158 Bells Line of Rd, Bilpin NSW 2758, Australia"
358,Bilpin,2758,Bilpin Fruit Bowl,cafe,3,206,150.5591435,-33.5095999,"2093 Bells Line of Rd, Bilpin NSW 2758, Australia"
358,Bilpin,2758,Maggie Lou's Bite,cafe,4.7,51,150.4696542,-33.5162832,"3068 Bells Line of Rd, Bilpin NSW 2758, Australia"
358,Bilpin,2758,Mountain Bells Cafe,cafe,4.3,28,150.5592558,-33.5088401,"2070 Bells Line of Rd, Bilpin NSW 2758, Australia"
361,Binalong,2584,Cafe on Queen,cafe,4.6,22,148.63239,-34.6686479,"13 Queen St, Binalong NSW 2584, Australia"
364,Bingara,2404,Peters Cafe,cafe,4.3,58,150.5715803,-29.8689887,"76 Maitland St, Bingara NSW 2404, Australia"
371,Binnaway,2395,Beauzo’s Cafe,cafe,4.9,8,149.3776706,-31.5524407,"20 Renshaw St, Binnaway NSW 2395, Australia"
373,Birchgrove,2041,Gladstone Store,cafe,4.8,35,151.181666,-33.851509,"37 Grove St, Birchgrove NSW 2041, Australia"
373,Birchgrove,2041,Charlotte Cafe,cafe,4.5,181,151.1811407,-33.8531765,"127 Rowntree St, Birchgrove NSW 2041, Australia"
378,Birrong,2143,Grind House Café & Co,cafe,4.9,9,151.0223701,-33.891018,"89 Auburn Rd, Birrong NSW 2143, Australia"
382,Black Head,2430,The Point Bakery Café,cafe,4.1,35,152.5382609,-32.068558,"Black Head NSW 2430, Australia"
391,Blackheath,2785,Hounslow,cafe,0,0,150.2858273,-33.6362117,"5/23-25 Govetts Leap Rd, Blackheath NSW 2785, Australia"
391,Blackheath,2785,Blackheath General Store,cafe,3.9,97,150.2848732,-33.6348204,"249 Great Western Hwy, Blackheath NSW 2785, Australia"
391,Blackheath,2785,Anonymous Cafe,cafe,4.1,371,150.2849594,-33.6354045,"237-238 Great Western Hwy, Blackheath NSW 2785, Australia"
391,Blackheath,2785,Wattle Cafe,cafe,4.2,209,150.2849379,-33.6351992,"240 Great Western Hwy, Blackheath NSW 2785, Australia"
391,Blackheath,2785,Victory Cafe,cafe,3.9,245,150.2859433,-33.6360706,"17-19 Govetts Leap Rd, Blackheath NSW 2785, Australia"
391,Blackheath,2785,Blackheath Deli,cafe,4.7,102,150.2859277,-33.6358377,"32 Govetts Leap Rd, Blackheath NSW 2785, Australia"
391,Blackheath,2785,Altitude Delicatessen,cafe,4.3,195,150.2855062,-33.6356686,"20 Govetts Leap Rd, Blackheath NSW 2785, Australia"
391,Blackheath,2785,Slurps Cafe,cafe,0,0,150.286116,-33.6358178,"36 Govetts Leap Rd, Blackheath NSW 2785, Australia"
391,Blackheath,2785,This Little Piggy Deli,cafe,4.6,14,150.284962,-33.635291,"238 Great Western Hwy, Blackheath NSW 2785, Australia"
393,Blackmans Point,2444,Cafe Red,cafe,0,0,152.828198,-31.39108,"221 Blackmans Point Rd, Blackmans Point NSW 2444, Australia"
394,Blacksmiths,2281,The Baker's Den Bakery Cafe,cafe,4.3,182,151.6468029,-33.0821726,"64 Pacific Hwy, Blacksmiths NSW 2281, Australia"
394,Blacksmiths,2281,The Yoga Place Cafe,cafe,4.8,30,151.6500385,-33.0784372,"6 Mitti St, Blacksmiths NSW 2281, Australia"
394,Blacksmiths,2281,Smithys Shack,cafe,3.7,15,151.6555799,-33.0802736,"Blacksmiths NSW 2281, Australia"
395,Blacktown,2148,Fresh Break,cafe,3.8,50,150.9051722,-33.7698687,"17 Patrick St, Blacktown NSW 2148, Australia"
395,Blacktown,2148,McDonald's Arndell Park,cafe,3.6,1472,150.897409,-33.79314830000001,"Cnr Reservoir &, Holbeche Rd, Blacktown NSW 2148, Australia"
395,Blacktown,2148,McDonald's Blacktown Food Court II,cafe,3.6,227,150.9059844,-33.7697252,"Westpoint Shopping Centre, Blacktown NSW 2148, Australia"
395,Blacktown,2148,Fresh+ Cafe,cafe,1,1,150.9171687,-33.7757881,"Blacktown NSW 2148, Australia"
395,Blacktown,2148,Main Spot Cafe,cafe,2,4,150.907144,-33.7632129,"1/45 Forth Ave, Blacktown NSW 2148, Australia"
395,Blacktown,2148,BELLAYUMI,cafe,5,5,150.9191897,-33.7819164,"Shop 9a/6 St Martins Cres, Blacktown NSW 2148, Australia"
395,Blacktown,2148,McDonald's Blacktown II,cafe,3.5,1297,150.911972,-33.766364,"Cnr Sunnyholt Rd &, Third Ave, Blacktown NSW 2148, Australia"
395,Blacktown,2148,McDonald's Blacktown Mega Centre St Martins Village,cafe,3.4,597,150.9199426,-33.7805732,"Cnr Blacktown Road &, St Martins Cres, Blacktown NSW 2148, Australia"
395,Blacktown,2148,Cafe Luna's Ray,cafe,5,19,150.9009087,-33.7624976,"81-83 Richmond Rd, Blacktown NSW 2148, Australia"
395,Blacktown,2148,McDonald's Blacktown Rway Conc,cafe,3.4,143,150.907024,-33.768476,"Railway Concourse, Blacktown NSW 2148, Australia"
395,Blacktown,2148,Thirstea,cafe,3.8,29,150.9072658,-33.7685036,"Blacktown Railway Station, Main St, Blacktown NSW 2148, Australia"
395,Blacktown,2148,Boost Juice,cafe,4.2,65,150.9041677,-33.7706119,"17 Patrick St, Blacktown NSW 2148, Australia"
395,Blacktown,2148,Gumballs,cafe,4,125,150.9065304,-33.770067,"9 Patrick St, Blacktown NSW 2148, Australia"
395,Blacktown,2148,The Coffee Club Café - Westpoint Blacktown,cafe,3.7,154,150.9070794,-33.7707332,"Shop 3068, Level 3/17 Patrick St, Blacktown NSW 2148, Australia"
