suburb_id,suburb,postcode,name,types,rating,user_ratings_total,lng,lat,formatted_address
1,Abbotsbury,2176,1st Mate Mobile Marine Services,car_repair,4.6,9,150.8664383,-33.8790951,"Kingston Pl, Abbotsbury NSW 2176, Australia"
12,Acacia Creek,2476,NooKee,car_repair,5,1,152.3137574,-28.3832739,"177 Killarney Rd, Acacia Creek NSW 2476, Australia"
15,Adamstown,2289,Steve Toms Automotive Services,car_repair,4.8,38,151.728899,-32.930835,"151 Brunker Rd, Adamstown NSW 2289, Australia"
15,Adamstown,2289,Autocraft Newcastle,car_repair,5,37,151.7144051,-32.9392521,"106 Dibbs St, Adamstown NSW 2289, Australia"
15,Adamstown,2289,D&P Dinardo,car_repair,4.8,16,151.7304104,-32.9298134,"125 Brunker Rd, Adamstown NSW 2289, Australia"
15,Adamstown,2289,Cheaper Cart Parts,car_repair,4.8,4,151.7259694,-32.9357598,"289 Brunker Rd, Adamstown NSW 2289, Australia"
15,Adamstown,2289,Adamstown Car Doctors,car_repair,4.7,66,151.714816,-32.939361,"48 Park Ave, Adamstown NSW 2289, Australia"
15,Adamstown,2289,Carter's Clutch & Brake Service Newcastle,car_repair,5,30,151.7171441,-32.9390836,"85 Fletcher St, Adamstown NSW 2289, Australia"
15,Adamstown,2289,Express Mobile Mechanic | Adamstown Heights,car_repair,0,0,151.7161164,-32.9437069,"14 Costata Cres, Adamstown NSW 2289, Australia"
17,Adelong,2729,Adelong Service Centre,car_repair,4.1,7,148.0713991,-35.3095232,"2 Selwyn St, Adelong NSW 2729, Australia"
17,Adelong,2729,RW Broadhurst Panel Repairs,car_repair,3.3,3,148.06244,-35.30791300000001,"89 Tumut St, Adelong NSW 2729, Australia"
21,Airds,2560,Latino's mechanical repairs,car_repair,3,2,150.8227558,-34.0922221,"14 Antill Way, Airds NSW 2560, Australia"
24,Albion Park,2527,W G Harris & Sons Pty LTD,car_repair,5,5,150.7766199,-34.5704933,"114 Tongarra Rd, Albion Park NSW 2527, Australia"
24,Albion Park,2527,Centenary Auto Parts,car_repair,4.9,17,150.7737457,-34.5710123,"2/155 Tongarra Rd, Albion Park NSW 2527, Australia"
24,Albion Park,2527,Ultra Tune Albion Park,car_repair,4.6,12,150.8173736,-34.5745677,"Unit 4/29-31 Durgadin Dr, Albion Park NSW 2527, Australia"
24,Albion Park,2527,Fine Tuned Autos,car_repair,5,29,150.8162982,-34.574129,"13 Shaban St, Albion Park NSW 2527, Australia"
24,Albion Park,2527,Bridgestone Select Tyre & Auto - Albion Park,car_repair,4.9,38,150.8168152,-34.5718355,"1/1 Durgadin Dr, Albion Park NSW 2527, Australia"
25,Albion Park Rail,2527,Southern Motor Works,car_repair,4.6,10,150.7873886,-34.5479608,"3 Rivulet Cres, Albion Park Rail NSW 2527, Australia"
25,Albion Park Rail,2527,A 2 B Automotive Repair,car_repair,4.6,16,150.8169048,-34.5733504,"3/5-7 Shaban St, Albion Park Rail NSW 2527, Australia"
25,Albion Park Rail,2527,"Shellharbour City Motors (Honda, Hyundai & Used Cars)",car_repair,4.1,112,150.791381,-34.5552029,"93 Princes Hwy, Albion Park Rail NSW 2527, Australia"
25,Albion Park Rail,2527,Tynan Motors Used Cars Albion Park,car_repair,4.8,278,150.7873805,-34.5492278,"1/5 Miall Way, Albion Park Rail NSW 2527, Australia"
25,Albion Park Rail,2527,Albion Park Mitsubishi,car_repair,3.6,90,150.7869818,-34.5488747,"101 Miall Way, Albion Park Rail NSW 2527, Australia"
25,Albion Park Rail,2527,Nix Automotive Centre,car_repair,4.7,29,150.8033855,-34.5675925,"253 Princes Hwy, Albion Park Rail NSW 2527, Australia"
25,Albion Park Rail,2527,Motocity Albion Park,car_repair,4.6,116,150.78778,-34.551202,"2/21 Princes Hwy, Albion Park Rail NSW 2527, Australia"
25,Albion Park Rail,2527,Wilsons Holden,car_repair,3.7,115,150.7864273,-34.5489308,"4-6 Miall Way, Albion Park Rail NSW 2527, Australia"
25,Albion Park Rail,2527,Albion Park Auto Electrical & Mechanical,car_repair,4.7,12,150.8162035,-34.5734797,"12 Shaban St, Albion Park Rail NSW 2527, Australia"
25,Albion Park Rail,2527,Albion Park Smash Repairs,car_repair,5,16,150.7866117,-34.5482432,"8 Rivulet Cres, Albion Park Rail NSW 2527, Australia"
25,Albion Park Rail,2527,Danics,car_repair,4.6,99,150.7918955,-34.5537896,"75 Princes Hwy, Albion Park Rail NSW 2527, Australia"
25,Albion Park Rail,2527,Wollongong Auto Parts,car_repair,4.5,47,150.79117,-34.5535953,"3/75 Princes Hwy, Albion Park Rail NSW 2527, Australia"
25,Albion Park Rail,2527,Wilsons Holden - Service Department,car_repair,3.6,23,150.7865988,-34.54722700000001,"12-14 Rivulet Cres, Albion Park Rail NSW 2527, Australia"
25,Albion Park Rail,2527,Autobarn Albion Park,car_repair,4.4,99,150.8169397,-34.5717351,"3/1 Durgadin Dr, Albion Park Rail NSW 2527, Australia"
25,Albion Park Rail,2527,Brake Express Auto Repair Centre,car_repair,5,30,150.8160721,-34.5735969,"2/12 Shaban St, Albion Park Rail NSW 2527, Australia"
25,Albion Park Rail,2527,Auto Electrician And Mechanics (Tjs car eletrics Pty Ltd),car_repair,5,10,150.7952794,-34.5610637,"170 Princes Hwy, Albion Park Rail NSW 2527, Australia"
25,Albion Park Rail,2527,Tony Lacey Smash Repairs,car_repair,3.9,11,150.8148539,-34.5742607,"21 Shaban St, Albion Park Rail NSW 2527, Australia"
25,Albion Park Rail,2527,Albion Park Window Tinting,car_repair,4.4,9,150.814172,-34.57429,"1/26 Shaban St, Albion Park Rail NSW 2527, Australia"
25,Albion Park Rail,2527,Solarshade,car_repair,4.5,15,150.8143339,-34.5733605,"1/48 Shandan Cct, Albion Park Rail NSW 2527, Australia"
25,Albion Park Rail,2527,Natrad AutoCare Oak Flats,car_repair,4.9,14,150.8151283,-34.5737481,"16 Shaban St, Albion Park Rail NSW 2527, Australia"
25,Albion Park Rail,2527,Gemini Albion Park,car_repair,4.4,38,150.8158065,-34.5744804,"26 Durgadin Dr, Albion Park Rail NSW 2527, Australia"
25,Albion Park Rail,2527,ALBION PARK RAIL Windscreens and Plastics pty ltd,car_repair,5,18,150.7895,-34.5515824,"1/45 Princes Hwy, Albion Park Rail NSW 2527, Australia"
25,Albion Park Rail,2527,Big Joe Choppers,car_repair,5,1,150.796453,-34.56416,"2 Station Rd, Albion Park Rail NSW 2527, Australia"
25,Albion Park Rail,2527,USA MOTORCYCLE CENTRE,car_repair,5,23,150.787602,-34.548515,"8 Miall Way, Albion Park Rail NSW 2527, Australia"
25,Albion Park Rail,2527,Illawarra Toyota - Service Department,car_repair,3.9,30,150.7883048,-34.5502743,"13-17 Princes Hwy, Albion Park Rail NSW 2527, Australia"
25,Albion Park Rail,2527,Kays Discount Tyres,car_repair,4.8,69,150.7908315,-34.5548796,"85 Princes Hwy, Albion Park Rail NSW 2527, Australia"
25,Albion Park Rail,2527,Coast & Country Powersports - Sea-Doo & Can-Am dealer,car_repair,4.9,15,150.7909144,-34.5537479,"1/75 Princes Hwy, Albion Park Rail NSW 2527, Australia"
25,Albion Park Rail,2527,Illawarra Hino Service,car_repair,5,1,150.7878975,-34.5483767,"1 Rivulet Cres, Albion Park Rail NSW 2527, Australia"
25,Albion Park Rail,2527,Frankies Auto Electrics & Custom Car Audio,car_repair,3.8,403,150.790489,-34.5541682,"69 Princes Hwy, Albion Park Rail NSW 2527, Australia"
25,Albion Park Rail,2527,Burson Auto Parts,car_repair,4.9,14,150.7888055,-34.5522419,"2/47 Princes Hwy, Albion Park Rail NSW 2527, Australia"
25,Albion Park Rail,2527,Coastal Bullbars,car_repair,4.6,25,150.814402,-34.573429,"1/48 Shandan Cct, Albion Park Rail NSW 2527, Australia"
26,Albury,2640,Albury Auto Mechanics & Gas,car_repair,4.7,23,146.9428973,-36.0660164,"854 Knight Rd, Albury NSW 2640, Australia"
26,Albury,2640,Ashdown-Ingram Albury,car_repair,5,2,146.9443974,-36.070353,"130 North St, Albury NSW 2640, Australia"
26,Albury,2640,Go Automotive,car_repair,4.9,35,146.939125,-36.063636,"216b Fallon St, Albury NSW 2640, Australia"
26,Albury,2640,O'Brien® AutoGlass Albury,car_repair,4.3,24,146.922987,-36.0833662,"469 Young St, Albury NSW 2640, Australia"
26,Albury,2640,Cartech Australia,car_repair,4.8,22,146.9227674,-36.0809347,"509 Spencer St, Albury NSW 2640, Australia"
26,Albury,2640,Albury Auto Paints,car_repair,5,5,146.911019,-36.0891639,"331B Townsend St, Albury NSW 2640, Australia"
26,Albury,2640,Repco Albury,car_repair,4.3,35,146.92304,-36.0824748,"1/477-479 Young St, Albury NSW 2640, Australia"
26,Albury,2640,New Power Motors,car_repair,4.6,15,146.9218682,-36.0840091,"454 Macauley St, Albury NSW 2640, Australia"
26,Albury,2640,Max Carmody Motors,car_repair,4.6,14,146.912068,-36.083459,"439 Townsend St, Albury S NSW 2640, Australia"
26,Albury,2640,Albury Automotive,car_repair,4.3,18,146.922618,-36.083342,"428 Smollett St, Albury NSW 2640, Australia"
26,Albury,2640,Mid City Service Station,car_repair,4.8,6,146.921257,-36.076932,"462 Wilson St, Albury NSW 2640, Australia"
26,Albury,2640,Albury Engine Reconditioning Pty Ltd.,car_repair,5,6,146.926029,-36.075598,"401 Guinea St, Albury NSW 2640, Australia"
26,Albury,2640,Albury Auto Body Repairs,car_repair,4.5,36,146.9197931,-36.0946058,"236 Macauley St, Albury NSW 2640, Australia"
26,Albury,2640,Buzz's Bikes & Bits,car_repair,4.4,31,146.9123238,-36.0835717,"439 Townsend St, Albury NSW 2640, Australia"
26,Albury,2640,Baker Mitsubishi,car_repair,4.1,15,146.9238115,-36.0822896,"490 Young St, Albury NSW 2640, Australia"
26,Albury,2640,Townsend Service Centre,car_repair,3.3,12,146.9111207,-36.0894434,"323 Townsend St, Albury NSW 2640, Australia"
26,Albury,2640,Houlihan's Caravan And RV Centre,car_repair,4.4,10,146.9098326,-36.0889586,"605 Ebden St, Albury NSW 2640, Australia"
26,Albury,2640,Border BM,car_repair,4.8,37,146.921684,-36.081974,"491 Macauley St, Albury NSW 2640, Australia"
26,Albury,2640,mycar Tyre and Auto Service Albury,car_repair,4.8,53,146.9212748,-36.0749812,"465 Guinea Street, Cnr David St, Albury NSW 2640, Australia"
29,Alexandria,2015,Central Autohaus,car_repair,4.5,58,151.1994876,-33.9020224,"76 McEvoy St, Alexandria NSW 2015, Australia"
29,Alexandria,2015,Alexandria Automotive Services,car_repair,2.5,2,151.1973868,-33.8974136,"36 Henderson Rd, Alexandria NSW 2015, Australia"
29,Alexandria,2015,Tibby Rose Auto & Electrical (Alexandria),car_repair,4.7,15,151.1994091,-33.9026694,"7 Hiles St, Alexandria NSW 2015, Australia"
29,Alexandria,2015,Precise Autocraft Pty Ltd,car_repair,4.2,28,151.1976773,-33.9161774,"2 Doody St, Alexandria NSW 2015, Australia"
29,Alexandria,2015,Sydney Luxury Smash Repairs,car_repair,4.3,24,151.1940081,-33.9204862,"55 Birmingham St, Alexandria NSW 2015, Australia"
29,Alexandria,2015,Fred's Car Rust Repairs,car_repair,3.7,3,151.2009832,-33.90849780000001,"12 Bourke Rd, Alexandria NSW 2015, Australia"
29,Alexandria,2015,Jade Mechanical Repairs,car_repair,4.8,21,151.1974581,-33.9143527,"Unit 15, 30/32 Beaconsfield St, Alexandria NSW 2015, Australia"
29,Alexandria,2015,O'Brien® AutoGlass Alexandria,car_repair,4.5,96,151.2003217,-33.9012575,"216-220 Wyndham St, Alexandria NSW 2015, Australia"
29,Alexandria,2015,Alexandria Motor Garage | Car Service and Repair in Alexandria,car_repair,4.8,32,151.1976445,-33.914385,"9/30-32 Beaconsfield St, Alexandria NSW 2015, Australia"
29,Alexandria,2015,BKB Motor Vehicle Repairs,car_repair,4.6,88,151.1990646,-33.9022229,"78/80 McEvoy St, Alexandria NSW 2015, Australia"
29,Alexandria,2015,Raco Motor Repairs,car_repair,4.9,10,151.1850979,-33.9191195,"4/562 Gardeners Rd, Alexandria NSW 2015, Australia"
29,Alexandria,2015,Alexandria Automotive Services,car_repair,4.2,99,151.1971821,-33.8973609,"36-42 Henderson Rd, Alexandria NSW 2015, Australia"
29,Alexandria,2015,BKB Motor Vehicle Repairs Truck & Bus,car_repair,5,7,151.1897097,-33.9090757,"92 Euston Rd, Alexandria NSW 2015, Australia"
29,Alexandria,2015,Sydney Motor Trimmers,car_repair,4.5,51,151.199935,-33.9035185,"8E Hiles St, Alexandria NSW 2015, Australia"
29,Alexandria,2015,JSH Motors,car_repair,4.1,10,151.1950051,-33.8978042,"82 Henderson Ln, Alexandria NSW 2015, Australia"
29,Alexandria,2015,Alexandria & City Smash Repair,car_repair,5,10,151.1986903,-33.902694,"34 McCauley St, Alexandria NSW 2015, Australia"
29,Alexandria,2015,Capital S.M.A.R.T Repairs Mascot,car_repair,4.1,67,151.1974639,-33.9112014,"33-35 O'Riordan St, Alexandria NSW 2015, Australia"
29,Alexandria,2015,Green Square Automotive,car_repair,2.2,28,151.200337,-33.906377,"20 Bourke Rd, Alexandria NSW 2015, Australia"
29,Alexandria,2015,Sydney Prestige Automotive Service,car_repair,4.3,12,151.18798,-33.912949,"71 Burrows Rd, Alexandria NSW 2015, Australia"
29,Alexandria,2015,Epsom Smash Repairs,car_repair,3.5,57,151.19689,-33.910733,"29-31 Collins St, Alexandria NSW 2015, Australia"
29,Alexandria,2015,Alexandria Radiator Service,car_repair,5,22,151.2007354,-33.9140171,"522 Botany Rd, Alexandria NSW 2015, Australia"
34,Allambie Heights,2100,Smart Choice Battery Replacement Allambie Heights,car_repair,0,0,151.2551013,-33.767193,"91 Allambie Rd, Allambie Heights NSW 2100, Australia"
34,Allambie Heights,2100,Manly Auto Instrument Repairs,car_repair,5,3,151.265558,-33.772271,"441 Condamine St, Allambie Heights NSW 2100, Australia"
34,Allambie Heights,2100,Full throttle mobile mechanics,car_repair,4.9,19,151.2553063,-33.7663045,"26 Kirra Rd, Allambie Heights NSW 2100, Australia"
44,Alstonville,2477,Alstonville Automotive Services,car_repair,4.2,20,153.4220911,-28.834462,"33 Northcott Cres, Alstonville NSW 2477, Australia"
44,Alstonville,2477,Wollongbar Auto Repairs Dak Dak Motors,car_repair,5,2,153.4236824,-28.8370375,"23 Owens Cres, Alstonville NSW 2477, Australia"
47,Ambarvale,2560,Superior Mobile Batteries Ambarvale,car_repair,0,0,150.8005456,-34.0947333,"7 Whitechapel Cl, Ambarvale NSW 2560, Australia"
57,Anna Bay,2316,ANNA BAY AUTOS,car_repair,4.1,15,152.085796,-32.7776971,"154 Gan Gan Rd, Anna Bay NSW 2316, Australia"
57,Anna Bay,2316,Port Stephens Automotive,car_repair,4.9,10,152.0854165,-32.7783085,"1/89 Morna Point Rd, Anna Bay NSW 2316, Australia"
57,Anna Bay,2316,Anna Bay Mechanical,car_repair,5,5,152.0854208,-32.7782669,"4/89 Morna Point Rd, Anna Bay NSW 2316, Australia"
57,Anna Bay,2316,Anna Bay Paint & Panel,car_repair,4.9,14,152.084747,-32.778071,"142 Gan Gan Rd, Anna Bay NSW 2316, Australia"
58,Annandale,2038,Annanda Motor Repairs,car_repair,4.8,18,151.1670987,-33.8837041,"139 Young St, Annandale NSW 2038, Australia"
58,Annandale,2038,Albion Automotive Repairs,car_repair,4.1,49,151.1701453,-33.8869047,"58 Albion St, Annandale NSW 2038, Australia"
58,Annandale,2038,Scooter Mondo,car_repair,4.2,43,151.1621403,-33.88797,"259 Parramatta Rd, Annandale NSW 2038, Australia"
59,Annangrove,2156,Annangrove Auto Services,car_repair,4.8,25,150.9521484,-33.6667137,"189A Annangrove Rd, Annangrove NSW 2156, Australia"
59,Annangrove,2156,JS Auto Electrics,car_repair,4.1,15,150.9364041,-33.6572127,"268 Annangrove Rd, Annangrove NSW 2156, Australia"
60,Appin,2560,Appin Automotive,car_repair,4.9,10,150.7797978,-34.2115845,"2/8-10 Technology Dr, Appin NSW 2560, Australia"
60,Appin,2560,Davo's Automotive,car_repair,4.9,16,150.7803133,-34.2116513,"Unit 4/12 Technology Dr, Appin NSW 2560, Australia"
60,Appin,2560,Lynk Motors,car_repair,0,0,150.7870953,-34.2039815,"Appin NSW 2560, Australia"
60,Appin,2560,F1Moto,car_repair,4.9,86,150.779781,-34.211305,"13/8-10 Technology Dr, Appin NSW 2560, Australia"
69,Arcadia,2159,Arcadia Automotive,car_repair,4.5,13,151.0441863,-33.6201803,"116C Arcadia Rd, Arcadia NSW 2159, Australia"
69,Arcadia,2159,Arcadia Smash Repairs,car_repair,5,2,151.0441588,-33.6201546,"116a Arcadia Rd, Arcadia NSW 2159, Australia"
75,Argenton,2284,Ultra Tune Argenton,car_repair,4.6,33,151.6306431,-32.9354343,"503 Lake Rd, Argenton NSW 2284, Australia"
79,Ariah Park,2665,Ariah Park Sales & Service,car_repair,0,0,147.220731,-34.348322,"42 Coolamon St, Ariah Park NSW 2665, Australia"
83,Armidale,2350,Wright Cliff Motors PTY Ltd.,car_repair,4.1,38,151.6485166,-30.5150721,"149 Miller St, Armidale NSW 2350, Australia"
83,Armidale,2350,Precision Motors,car_repair,5,22,151.6684773,-30.5174514,"101-107 Barney St, Armidale NSW 2350, Australia"
83,Armidale,2350,David Carey Auto Repairs,car_repair,4.9,8,151.662379,-30.514145,"166 Rusden St, Armidale NSW 2350, Australia"
83,Armidale,2350,John Fowler Automotive & Engine Reconditioning,car_repair,4.9,22,151.6473438,-30.5079044,"351 Beardy St, Armidale NSW 2350, Australia"
83,Armidale,2350,Phillip Pattison Auto Repairs,car_repair,5,11,151.6442807,-30.5164899,"7/270 Mann St, Armidale NSW 2350, Australia"
83,Armidale,2350,Armidale Smash Repairs,car_repair,4.8,4,151.6510164,-30.5159051,"215 Mann St, Armidale NSW 2350, Australia"
83,Armidale,2350,M&T Mcfarlane,car_repair,4.7,7,151.646659,-30.513987,"11 Wright Pl, Armidale NSW 2350, Australia"
83,Armidale,2350,Autobarn,car_repair,4.6,53,151.6615937,-30.5123142,"1/250 Beardy St, Armidale NSW 2350, Australia"
83,Armidale,2350,William's Automotive Service & Repair Centre,car_repair,4.6,12,151.6516111,-30.5139624,"23 Crescent St, Armidale NSW 2350, Australia"
83,Armidale,2350,Repco Authorised Car Service Armidale,car_repair,4.3,31,151.650994,-30.513128,"120 Ohio St, Armidale NSW 2350, Australia"
83,Armidale,2350,Tyrepower Armidale,car_repair,4.7,31,151.6476081,-30.511578,"1 Drew St, Armidale NSW 2350, Australia"
83,Armidale,2350,Armidale Windscreens & Radiators,car_repair,4.6,17,151.6864598,-30.5257072,"5 Mann St, Armidale NSW 2350, Australia"
83,Armidale,2350,Killens Smash Repairs,car_repair,4.9,61,151.6474007,-30.51629659999999,"246 Mann St, Armidale NSW 2350, Australia"
83,Armidale,2350,Marriott Smash Repairs,car_repair,5,6,151.647397,-30.507981,"351 Beardy St, Armidale NSW 2350, Australia"
83,Armidale,2350,R. Noble's Sales & Parts,car_repair,4.8,4,151.6699724,-30.5142939,"101 Beardy St, Armidale NSW 2350, Australia"
83,Armidale,2350,Natrad Armidale,car_repair,1,1,151.6484156,-30.5148298,"149 Miller St, Armidale NSW 2350, Australia"
83,Armidale,2350,Platinum Automotive Services,car_repair,4.8,10,151.6417318,-30.5162595,"10 Webb Pl, Armidale NSW 2350, Australia"
83,Armidale,2350,Weston & Court Smash Repairs,car_repair,0,0,151.670527,-30.514179,"95 Beardy St, Armidale NSW 2350, Australia"
83,Armidale,2350,Carson's Car Care,car_repair,4,17,151.644701,-30.516322,"6/270 Mann St, Armidale NSW 2350, Australia"
83,Armidale,2350,David Glock Automotive,car_repair,5,25,151.644339,-30.515398,"276 Mann St, Armidale NSW 2350, Australia"
83,Armidale,2350,Armidale Auto & Tyre Centre,car_repair,4.1,8,151.6632802,-30.5116017,"106 Jessie St, Armidale NSW 2350, Australia"
83,Armidale,2350,Armidale Auto Electrics,car_repair,4.8,17,151.6503736,-30.5165719,"5/215 Mann St, West Armidale NSW 2350, Australia"
83,Armidale,2350,Beaurepaires for Tyres Armidale,car_repair,4.2,25,151.6713535,-30.5125436,"93 Dumaresq St, Armidale NSW 2350, Australia"
83,Armidale,2350,mycar Tyre and Auto Service Armidale,car_repair,4.6,40,151.664449,-30.51144099999999,"Corner of Dumaresq Street and, Jessie St, Armidale NSW 2350, Australia"
83,Armidale,2350,Bones Tyres,car_repair,4.8,44,151.6464439,-30.5153741,"255 Mann St, West Armidale NSW 2350, Australia"
83,Armidale,2350,Fast Glass New England,car_repair,5,2,151.6472944,-30.507728,"351 Beardy St, West Armidale NSW 2350, Australia"
83,Armidale,2350,Yeomans MJ on THE Spot Mechanical Service,car_repair,3.7,3,151.6532791,-30.5130078,"140 O'Dell St, Armidale NSW 2350, Australia"
83,Armidale,2350,JP Paintless Dent Repairs,car_repair,4,2,151.6561905,-30.5285819,"9 Lynches Rd, Armidale NSW 2350, Australia"
83,Armidale,2350,Lever Automotive,car_repair,5,6,151.6474589,-30.5114172,"1 Drew St, Armidale NSW 2350, Australia"
83,Armidale,2350,Grant McCarroll Ford,car_repair,4.1,20,151.6684928,-30.5148326,"125 Marsh St, Armidale NSW 2350, Australia"
83,Armidale,2350,Repco Armidale,car_repair,4.1,21,151.6641604,-30.5131219,"2/216-218 Beardy St, Armidale NSW 2350, Australia"
83,Armidale,2350,Supercheap Auto Armidale,car_repair,4.2,122,151.6478698,-30.5142795,"152 Miller St, Armidale NSW 2350, Australia"
83,Armidale,2350,Armidale Auto Upholstery,car_repair,0,0,151.6473244,-30.5146575,"6 Wright Pl, Armidale NSW 2350, Australia"
83,Armidale,2350,J C Spares,car_repair,4.7,22,151.6702117,-30.5147361,"96 Beardy St, Armidale NSW 2350, Australia"
83,Armidale,2350,Tigertread Pty Ltd,car_repair,5,3,151.6430709,-30.515426,"288 Mann St, Armidale NSW 2350, Australia"
83,Armidale,2350,Ward's Auto Paint Supplies,car_repair,5,1,151.6710101,-30.5165426,"118 Taylor St, Armidale NSW 2350, Australia"
83,Armidale,2350,Westend Sound,car_repair,4.9,11,151.6463576,-30.5139855,"13 Wright Pl, Armidale NSW 2350, Australia"
83,Armidale,2350,MyCar Sound & Communications,car_repair,4.7,18,151.6735186,-30.5048599,"57 Newton St, Armidale NSW 2350, Australia"
83,Armidale,2350,New England Hydraulics and Diesel Pty Ltd,car_repair,4.5,2,151.6425904,-30.5171953,"2-4 Brickfield Ave, Armidale NSW 2350, Australia"
83,Armidale,2350,2V Diesel Pty Ltd,car_repair,5,2,151.6474742,-30.5133973,"148 Miller St, Armidale NSW 2350, Australia"
83,Armidale,2350,TJM,car_repair,4.4,5,151.6710422,-30.5124222,"97 Dumaresq St, Armidale NSW 2350, Australia"
83,Armidale,2350,Rick's Window Tinting,car_repair,3.3,3,151.6439449,-30.5153749,"280 Mann St, Armidale NSW 2350, Australia"
83,Armidale,2350,BCF (Boating Camping Fishing) Armidale,car_repair,4.4,81,151.6479154,-30.5125981,"136 Miller Street West, Armidale NSW 2350, Australia"
85,Arncliffe,2205,Rockdale City Kia,car_repair,4.4,142,151.142594,-33.943233,"291 Princes Hwy, Arncliffe NSW 2205, Australia"
85,Arncliffe,2205,City Ford Rockdale,car_repair,4.1,181,151.1430277,-33.942961,"273-291 Princes Hwy, Arncliffe NSW 2205, Australia"
85,Arncliffe,2205,Electromotive Auto Electrical,car_repair,5,4,151.14536,-33.941806,"202 Princes Hwy, Arncliffe NSW 2205, Australia"
85,Arncliffe,2205,Taleb Tyres & Wheels,car_repair,4.8,68,151.1518349,-33.9348162,"40-42 Princes Hwy, Arncliffe NSW 2205, Australia"
85,Arncliffe,2205,St George Tyre Service,car_repair,4.2,245,151.144787,-33.9421464,"218 Princes Hwy, Arncliffe NSW 2205, Australia"
85,Arncliffe,2205,Euro Star Car Parts,car_repair,4.2,25,151.142638,-33.942901,"36 Hattersley St, Arncliffe NSW 2205, Australia"
85,Arncliffe,2205,Convertible & Sunroof Autocenter,car_repair,5,9,151.1512862,-33.9352197,"54/58 Princes Hwy, Arncliffe NSW 2205, Australia"
85,Arncliffe,2205,City Ford (Parts Dist),car_repair,4.3,19,151.149932,-33.933772,"12-28 Arncliffe St, Arncliffe NSW 2205, Australia"
85,Arncliffe,2205,Roof Rack Superstore Arncliffe,car_repair,4.8,32,151.1452176,-33.9419196,"206 Princes Hwy, Arncliffe NSW 2205, Australia"
85,Arncliffe,2205,Arncliffe Car Repair Services,car_repair,4.2,49,151.1488644,-33.9385163,"138 Princes Hwy, Arncliffe NSW 2205, Australia"
85,Arncliffe,2205,T&G Auto Repairs,car_repair,2,1,151.1317484,-33.9420618,"270 Wollongong Rd, Arncliffe NSW 2205, Australia"
85,Arncliffe,2205,Top One Automotive Repair,car_repair,4.9,114,151.1515237,-33.934074,"9 Argyle St, Arncliffe NSW 2205, Australia"
85,Arncliffe,2205,Judds Auto Repairs,car_repair,4.3,14,151.144196,-33.942051,"Arncliffe, 251 Princes Hwy, Sydney NSW 2205, Australia"
85,Arncliffe,2205,Arncliffe Automotives,car_repair,4.9,13,151.145438,-33.941745,"200 Princes Hwy, Arncliffe NSW 2205, Australia"
85,Arncliffe,2205,City Ford Rockdale Service Centre,car_repair,4.3,170,151.1494619,-33.9332975,"12-28 Arncliffe St, Arncliffe NSW 2205, Australia"
85,Arncliffe,2205,A 1 Road & Race Motorcycles,car_repair,4.6,87,151.1449134,-33.9419186,"212 Princes Hwy, Arncliffe NSW 2205, Australia"
85,Arncliffe,2205,Buber Mechanics Arncliffe,car_repair,5,7,151.1440572,-33.9422714,"255 Princes Hwy, Arncliffe NSW 2205, Australia"
85,Arncliffe,2205,Auto & General Arncliffe Assessment Centre,car_repair,1.8,12,151.1488308,-33.9386082,"132 Princes Hwy, Arncliffe NSW 2205, Australia"
85,Arncliffe,2205,McCarthy Auto Repairs,car_repair,5,6,151.1518229,-33.9342398,"117 Princes Hwy, Arncliffe NSW 2205, Australia"
85,Arncliffe,2205,Pink Slip Today Arncliffe,car_repair,0,0,151.1459991,-33.9380856,"35 Firth St, Arncliffe NSW 2205, Australia"
85,Arncliffe,2205,N.I Smash Repairs,car_repair,5,2,151.150445,-33.9363906,"80-82 Princes Hwy, Arncliffe NSW 2205, Australia"
85,Arncliffe,2205,Running Gear Automotive Pty Ltd,car_repair,5,12,151.1460772,-33.9412211,"184 Princes Hwy, Arncliffe NSW 2205, Australia"
85,Arncliffe,2205,Ralphs Prestige Mechanical Repairs,car_repair,5,3,151.144462,-33.941637,"3 Hattersley St, Arncliffe NSW 2205, Australia"
85,Arncliffe,2205,Golbert Restorations,car_repair,4.9,45,151.1502984,-33.9367451,"90-94 Princes Hwy, Arncliffe NSW 2205, Australia"
86,Arndell Park,2148,Buddy's Motor Mechanic,car_repair,4,4,150.8897419,-33.7903125,"70 Holbeche Rd, Arndell Park NSW 2148, Australia"
86,Arndell Park,2148,Pratek Automotive Pty Ltd,car_repair,4.1,59,150.8820293,-33.7908986,"Sydney, 23 Lidco St, Arndell Park NSW 2148, Australia"
86,Arndell Park,2148,BNJ Automotive,car_repair,4.9,96,150.8766725,-33.7882079,"2/12 Holbeche Rd, Arndell Park NSW 2148, Australia"
86,Arndell Park,2148,Motor Mechanics Sydney By Finetune Mechanics,car_repair,3.4,44,150.8768775,-33.7887303,"14/14 Holbeche Rd, Arndell Park NSW 2148, Australia"
86,Arndell Park,2148,Mikes Automotive Services,car_repair,4.3,6,150.882308,-33.789044,"1/28 Holbeche Rd, Arndell Park NSW 2148, Australia"
86,Arndell Park,2148,Arndell Park Auto Electrics,car_repair,4.5,13,150.876821,-33.7885777,"18/14 Holbeche Rd, Arndell Park NSW 2148, Australia"
86,Arndell Park,2148,Advanced Steering & Mechanical,car_repair,5,11,150.877358,-33.788252,"5/14 Holbeche Rd, Arndell Park NSW 2148, Australia"
86,Arndell Park,2148,Ace Automotive Mechanical,car_repair,5,111,150.875235,-33.788608,"1A/6 McCormack St, Arndell Park NSW 2148, Australia"
86,Arndell Park,2148,Dandan Automotive,car_repair,5,11,150.8897419,-33.7903125,"11/70 Holbeche Rd, Arndell Park NSW 2148, Australia"
86,Arndell Park,2148,Eastern Creek Smash Repairs,car_repair,4.6,33,150.8824262,-33.790066,"5 Kenoma Pl, Arndell Park NSW 2148, Australia"
86,Arndell Park,2148,A1 Auto Electrical,car_repair,5,4,150.8771164,-33.788878,"U4/14 Holbeche Rd, Arndell Park NSW 2148, Australia"
86,Arndell Park,2148,Vella Bros Smash Repairs Pty Ltd,car_repair,5,37,150.8829479,-33.7891357,"32 Holbeche Rd, Arndell Park NSW 2148, Australia"
86,Arndell Park,2148,Ultimate Refinishes,car_repair,4.8,27,150.8831533,-33.7892153,"34 Holbeche Rd, Arndell Park NSW 2148, Australia"
86,Arndell Park,2148,Riding Rubber,car_repair,4.9,50,150.877343,-33.788691,"21/14 Holbeche Rd, Arndell Park NSW 2148, Australia"
86,Arndell Park,2148,Damon Diesel Mechanical Service & Repairs,car_repair,4.3,15,150.8828382,-33.7910853,"12 Vangeli St, Arndell Park NSW 2148, Australia"
86,Arndell Park,2148,High End Automotive,car_repair,5,12,150.8749226,-33.788584,"4/6 McCormack St, Arndell Park NSW 2148, Australia"
86,Arndell Park,2148,Ultra Tune Arndell Park,car_repair,4.8,30,150.8767939,-33.7882193,"22/14 Holbeche Rd, Arndell Park NSW 2148, Australia"
86,Arndell Park,2148,Eastern Creek Mechanical Repairs,car_repair,4.5,6,150.8829426,-33.7891543,"32 Holbeche Rd, Arndell Park NSW 2148, Australia"
86,Arndell Park,2148,Jmac Diff & Gear,car_repair,4.9,13,150.885569,-33.788778,"2/51 Holbeche Rd, Arndell Park NSW 2148, Australia"
86,Arndell Park,2148,DC Jap Automotive,car_repair,5,24,150.8898559,-33.790191,"unit 13/70 Holbeche Rd, Arndell Park NSW 2148, Australia"
86,Arndell Park,2148,V-Sport Australia,car_repair,4.7,29,150.8894461,-33.7905277,"Unit 46/70 Holbeche Rd, Arndell Park NSW 2148, Australia"
86,Arndell Park,2148,Corse Automotive & Motorsport,car_repair,4.8,4,150.881893,-33.789576,"10 Kenoma Pl, Arndell Park NSW 2148, Australia"
86,Arndell Park,2148,Ark Corporation Pty Ltd,car_repair,3.3,9,150.8815228,-33.7923667,"8 Smoothy Pl, Arndell Park NSW 2148, Australia"
86,Arndell Park,2148,IVECO Sydney,car_repair,3.9,81,150.8756256,-33.7915725,"Cnr Penelope Crescent &, Showroom 1 McCormack St, Arndell Park NSW 2148, Australia"
86,Arndell Park,2148,Big Wheels Truck Alignment - Arndell Park,car_repair,4.7,24,150.8848474,-33.7888807,"49 Holbeche Rd, Arndell Park NSW 2148, Australia"
86,Arndell Park,2148,Zarate Mechanics,car_repair,5,102,150.8750663,-33.7886183,"3/6 McCormack St, Arndell Park NSW 2148, Australia"
86,Arndell Park,2148,Thermal Mark Transport Refrigeration,car_repair,4.4,7,150.8933317,-33.7954278,"24 Penny Pl, Arndell Park NSW 2148, Australia"
86,Arndell Park,2148,Flexible Drive,car_repair,0,0,150.8894739,-33.7900858,"17/70 Holbeche Rd, Arndell Park NSW 2148, Australia"
86,Arndell Park,2148,Gary's Motorsport Tyres,car_repair,4.6,10,150.8771101,-33.7887372,"14 Holbeche Rd, Arndell Park NSW 2148, Australia"
86,Arndell Park,2148,MANN+HUMMEL,car_repair,0,0,150.8898839,-33.7904232,"Unit 24/70 Holbeche Rd, Arndell Park NSW 2148, Australia"
89,Artarmon,2064,Pep's Auto Spares Artarmon,car_repair,4.6,44,151.180367,-33.815668,"78 Hotham Parade, Artarmon NSW 2064, Australia"
89,Artarmon,2064,Arcus Auto Services,car_repair,4.8,44,151.1818506,-33.8149855,"52 Hotham Parade, Artarmon NSW 2064, Australia"
89,Artarmon,2064,Castle Automotive,car_repair,4.8,39,151.1921784,-33.8142803,"14-16 Lambs Rd, Artarmon NSW 2064, Australia"
89,Artarmon,2064,Gemini Artarmon,car_repair,4,139,151.1894715,-33.8146822,"24 Herbert St, Artarmon NSW 2064, Australia"
89,Artarmon,2064,Pacific Automotive - MyMechanic,car_repair,4.9,157,151.1848,-33.815472,"29 Dickson Ave, Artarmon NSW 2064, Australia"
89,Artarmon,2064,HD Smash Repairs,car_repair,5,65,151.1818665,-33.8150004,"52 Sawyer Ln, Artarmon NSW 2064, Australia"
89,Artarmon,2064,K.W. Armstrong Automotive Repairs,car_repair,4.7,31,151.181864,-33.815627,"57 Whiting St, Artarmon NSW 2064, Australia"
89,Artarmon,2064,Alto ŠKODA Artarmon,car_repair,4.4,107,151.1788307,-33.8159497,"393 Pacific Hwy, Artarmon NSW 2064, Australia"
89,Artarmon,2064,Auto Tech Smash Repairs,car_repair,4.8,44,151.1821676,-33.8147336,"46 Hotham Parade, Artarmon NSW 2064, Australia"
89,Artarmon,2064,Subaru Service Artarmon,car_repair,4.2,158,151.1813783,-33.8158764,"65 Whiting St, Artarmon NSW 2064, Australia"
89,Artarmon,2064,Express Repairs Northside,car_repair,3.5,66,151.1819588,-33.8173735,"327 Pacific Hwy, Artarmon NSW 2064, Australia"
89,Artarmon,2064,Scotts Honda Service,car_repair,3.9,23,151.1828807,-33.8178978,"291 Pacific Hwy, Artarmon NSW 2064, Australia"
89,Artarmon,2064,McCarroll's Alfa Romeo & Fiat,car_repair,4.4,62,151.1778701,-33.8142612,"4/403 Pacific Hwy, Artarmon NSW 2064, Australia"
89,Artarmon,2064,Lambs Road Auto Repairs,car_repair,4.9,42,151.1922536,-33.8144782,"20 Lambs Rd, Artarmon NSW 2064, Australia"
89,Artarmon,2064,Reliable Automotive Services,car_repair,5,37,151.18549,-33.814946,"15 Dickson Ave, Artarmon NSW 2064, Australia"
89,Artarmon,2064,Jack Hillermans,car_repair,4.6,97,151.1831917,-33.8154433,"32 Whiting St, Artarmon NSW 2064, Australia"
89,Artarmon,2064,Anva Auto Body Repairs,car_repair,0,0,151.182506,-33.8159174,"46 Whiting St, Artarmon NSW 2064, Australia"
89,Artarmon,2064,Five Ways Garage,car_repair,5,7,151.1922856,-33.8144214,"18 Lambs Rd, Artarmon NSW 2064, Australia"
89,Artarmon,2064,Sydney North Shore Automotive - Service,car_repair,3.2,9,151.1889505,-33.8158148,"22 Cleg St, Artarmon NSW 2064, Australia"
89,Artarmon,2064,Hotham Body Repairs,car_repair,0,0,151.1799005,-33.8158852,"86 Hotham Parade, Artarmon NSW 2064, Australia"
89,Artarmon,2064,North Prestige Auto Services,car_repair,4.4,17,151.1845085,-33.8165309,"29/31 Carlotta St, Artarmon NSW 2064, Australia"
89,Artarmon,2064,Artarmon Mazda,car_repair,4,102,151.1845801,-33.8178544,"3-5 Campbell St, Artarmon NSW 2064, Australia"
89,Artarmon,2064,LSR Autobody,car_repair,4.6,40,151.181072,-33.814703,"41 Hotham Parade, Artarmon NSW 2064, Australia"
89,Artarmon,2064,Bmwise Sydney,car_repair,4.8,18,151.1871602,-33.8157877,"77 Reserve Rd, Artarmon NSW 2064, Australia"
89,Artarmon,2064,Autoactive Mechanic North Shore,car_repair,4.8,34,151.182916,-33.814475,"36 Hotham Parade, Artarmon NSW 2064, Australia"
89,Artarmon,2064,Artarmon Auto and Mechanical,car_repair,4.9,44,151.1820411,-33.815027,"50 Hotham Parade, Artarmon NSW 2064, Australia"
89,Artarmon,2064,Cremorne Prestige Service,car_repair,4.6,22,151.1814175,-33.8147391,"1/39 Hotham Parade, Artarmon NSW 2064, Australia"
89,Artarmon,2064,Tyrepower Artarmon & Mechanical,car_repair,4.7,214,151.1843284,-33.8144237,"17 Whiting St, Artarmon NSW 2064, Australia"
89,Artarmon,2064,Tyre Pro Artarmon,car_repair,4.8,113,151.1825041,-33.8153982,"45 Whiting St, Artarmon NSW 2064, Australia"
89,Artarmon,2064,Jacks Auto Electrical & Mechanical,car_repair,4.4,88,151.1811415,-33.8165102,"70 Whiting St, Artarmon NSW 2064, Australia"
89,Artarmon,2064,Stow Smash Repairs,car_repair,4,29,151.1821802,-33.8142505,"33 Hotham Parade, Artarmon NSW 2064, Australia"
89,Artarmon,2064,Williams and Wood Auto Repairs and mechanical services,car_repair,5,14,151.1852634,-33.8150585,"19 Dickson Ave, Artarmon NSW 2064, Australia"
89,Artarmon,2064,JAX Tyres & Auto Artarmon,car_repair,4.9,352,151.1862081,-33.81472230000001,"105-107 Reserve Rd, Artarmon NSW 2064, Australia"
89,Artarmon,2064,Alto Volkswagen North Shore (Service),car_repair,3.6,12,151.1808885,-33.8150719,"43-45 Hotham Parade, Artarmon NSW 2064, Australia"
89,Artarmon,2064,Cruise Automotive Services,car_repair,4.9,40,151.1838152,-33.8141226,"22 Hotham Parade, Artarmon NSW 2064, Australia"
89,Artarmon,2064,BNT Smash Repairs PTY Ltd.,car_repair,0,0,151.183133,-33.814465,"34 Hotham Parade, Artarmon NSW 2064, Australia"
89,Artarmon,2064,Ultra Tune Artarmon,car_repair,4.5,32,151.1826512,-33.8151893,"43 Whiting St, Artarmon NSW 2064, Australia"
89,Artarmon,2064,G&F Motor Repairs,car_repair,4.9,21,151.183966,-33.814544,"23 Whiting St, Artarmon NSW 2064, Australia"
89,Artarmon,2064,Burton & Scerra Motor Repair,car_repair,4.9,252,151.1865939,-33.8144672,"7A Dickson Ave, Artarmon NSW 2064, Australia"
89,Artarmon,2064,Atlas Motor Body Works,car_repair,4.9,122,151.1826136,-33.814532,"38 Hotham Parade, Artarmon NSW 2064, Australia"
89,Artarmon,2064,Concours Motor Body Repairs,car_repair,4.8,61,151.1807873,-33.81546,"66-68 Hotham Parade, Artarmon NSW 2064, Australia"
89,Artarmon,2064,Artarmon Automotive Service,car_repair,4.8,33,151.181528,-33.815799,"63 Whiting St, Artarmon NSW 2064, Australia"
89,Artarmon,2064,Lloyd Penn Motorcycles,car_repair,4.9,210,151.190553,-33.814305,"34 Punch St, Artarmon NSW 2064, Australia"
89,Artarmon,2064,Motorserve Artarmon Car Servicing,car_repair,3.9,322,151.19103,-33.815292,"8/43 Herbert St, Artarmon NSW 2064, Australia"
89,Artarmon,2064,Audcare Motors,car_repair,4.3,19,151.1822571,-33.8159449,"50 Whiting St, Artarmon NSW 2064, Australia"
89,Artarmon,2064,Northside Motorcycles,car_repair,4,160,151.1811735,-33.8172436,"335 Pacific Hwy, Artarmon NSW 2064, Australia"
89,Artarmon,2064,Prestige Auto Body Shop,car_repair,4.9,189,151.187077,-33.815679,"83-85 Reserve Rd, Artarmon NSW 2064, Australia"
89,Artarmon,2064,Doyles In Car Artarmon,car_repair,4.5,12,151.1875379,-33.8179485,"4/80 Reserve Rd, Artarmon NSW 2064, Australia"
89,Artarmon,2064,North Shore Classic,car_repair,3.8,9,151.1842969,-33.8155077,"35-37 Dickson Ave, Artarmon NSW 2064, Australia"
89,Artarmon,2064,Andrea Motori Service,car_repair,4.4,14,151.1844616,-33.8141361,"13 Whiting St, Artarmon NSW 2064, Australia"
89,Artarmon,2064,"Mercedes-Benz North Shore, Service Centre",car_repair,4.5,74,151.18297,-33.8166651,"66 Dickson Ave, Artarmon NSW 2064, Australia"
89,Artarmon,2064,North Shore Smash Repairs Artarmon Sydney,car_repair,4.8,40,151.182566,-33.815939,"46 Whiting St, Artarmon NSW 2064, Australia"
89,Artarmon,2064,Chatswood Toyota Service Centre,car_repair,4.1,230,151.1795573,-33.8146135,"12 Marden St, Artarmon NSW 2064, Australia"
89,Artarmon,2064,Artarmon Auto Body Repairs,car_repair,5,23,151.1878833,-33.8152079,"14 Waltham St, Artarmon NSW 2064, Australia"
89,Artarmon,2064,Wyvern Smash Repairs,car_repair,4.2,61,151.184231,-33.817371,"8 Carlotta St, Artarmon NSW 2064, Australia"
89,Artarmon,2064,AutoPlus Service Centre,car_repair,4.8,177,151.183559,-33.814615,"29 Whiting St, Artarmon NSW 2064, Australia"
89,Artarmon,2064,North Side Auto Works,car_repair,5,121,151.1846638,-33.8164864,"27 Carlotta St, Artarmon NSW 2064, Australia"
92,Ashbury,2193,Belmore Motor Works,car_repair,4.8,55,151.1201175,-33.9006282,"39 King St, Ashbury NSW 2193, Australia"
97,Ashfield,2131,Supercheap Auto Ashfield,car_repair,4.1,428,151.1291067,-33.8904427,"138/144 Liverpool Rd, Ashfield NSW 2131, Australia"
97,Ashfield,2131,Power Crank Batteries,car_repair,4,21,151.123264,-33.87988,"110 Frederick St, Ashfield NSW 2131, Australia"
97,Ashfield,2131,Ashfield Automotive,car_repair,4.6,72,151.1268629,-33.9002873,"1 Hardy St, Ashfield NSW 2131, Australia"
97,Ashfield,2131,mycar Tyre and Auto Service Ashfield,car_repair,3.8,185,151.1233143,-33.88906550000001,"Shop 501/260A Liverpool Rd, Ashfield NSW 2131, Australia"
97,Ashfield,2131,MB Murry Brown Motors,car_repair,4.9,8,151.117486,-33.887787,"24 Milton St N, Ashfield NSW 2131, Australia"
97,Ashfield,2131,Jay Lee Motors Pty Ltd,car_repair,4.7,91,151.1169434,-33.88789510000001,"27 Milton St N, Ashfield NSW 2131, Australia"
97,Ashfield,2131,Bosch Car Service - TDC Automotive,car_repair,5,104,151.1173329,-33.8880286,"32 Milton St N, Ashfield NSW 2131, Australia"
97,Ashfield,2131,Carlos Mechanic,car_repair,5,1,151.1169501,-33.8878668,"27 Milton St N, Ashfield NSW 2131, Australia"
97,Ashfield,2131,Alfa Car Centre,car_repair,0,0,151.1363191,-33.8873907,"45 Liverpool Rd, Ashfield NSW 2131, Australia"
97,Ashfield,2131,Ashfield Service Centre,car_repair,3.6,41,151.125702,-33.886453,"22 Charlotte St, Ashfield NSW 2131, Australia"
97,Ashfield,2131,Mechanics 2 You - Mobile Mechanic - Ashfield,car_repair,0,0,151.1255438,-33.8883513,"18A Hercules St, Ashfield NSW 2131, Australia"
97,Ashfield,2131,Arch Automatics,car_repair,5,18,151.1172772,-33.8878453,"28 Milton St N, Ashfield NSW 2131, Australia"
97,Ashfield,2131,MR Autosports,car_repair,4.8,30,151.1200944,-33.8890138,"21 Lapish Ave, Ashfield NSW 2131, Australia"
97,Ashfield,2131,Auto air solutions- mobile air con regas and repairs,car_repair,5,12,151.130094,-33.879794,"Alt St, Ashfield NSW 2132, Australia"
100,Ashmont,2650,Circle Star Motors,car_repair,4.9,7,147.34748,-35.119165,"20 Dobney Ave, Ashmont NSW 2650, Australia"
100,Ashmont,2650,Derricks Automotive Repairs,car_repair,4.8,8,147.3471327,-35.1179196,"27b Dobney Ave, Ashmont NSW 2650, Australia"
100,Ashmont,2650,R/T Automotive,car_repair,4.9,14,147.3395082,-35.1259822,"16-20 Ashmont Ave, Ashmont NSW 2650, Australia"
100,Ashmont,2650,Riverina Motor Group,car_repair,4.5,76,147.3430802,-35.1229726,"42-52 Dobney Ave, Ashmont NSW 2650, Australia"
100,Ashmont,2650,COD Automotive,car_repair,5,7,147.3418757,-35.1257342,"3/218 Urana St, Ashmont NSW 2650, Australia"
100,Ashmont,2650,Ingrams Automotive,car_repair,4.5,4,147.3412148,-35.12382729999999,"75 Dobney Ave, Ashmont NSW 2650, Australia"
100,Ashmont,2650,Doug Sutherland Truck Repairs,car_repair,5,6,147.3413822,-35.1253529,"222 Urana St, Ashmont NSW 2650, Australia"
100,Ashmont,2650,Precision Auto Centre,car_repair,5,19,147.3414173,-35.1236802,"1/71-73 Dobney Ave, Ashmont NSW 2650, Australia"
100,Ashmont,2650,Advanced Automotive Electrics,car_repair,4.6,11,147.340836,-35.1235807,"5/71-73 Dobney Ave, Ashmont NSW 2650, Australia"
100,Ashmont,2650,Wagga Radiators & Car Air Conditioning,car_repair,4.8,9,147.3469777,-35.1181693,"31 Dobney Ave, Ashmont NSW 2650, Australia"
100,Ashmont,2650,Wagga Brake & Steering Specialists,car_repair,5,13,147.3412619,-35.1235939,"2/71-73 Dobney Ave, Ashmont NSW 2650, Australia"
101,Ashtonfield,2323,SJB Earthmoving Repairs & Maintenance,car_repair,0,0,151.5903679,-32.7675291,"24 Kilkenny Cct, Ashtonfield NSW 2323, Australia"
102,Asquith,2077,Anytime Motors Hornsby (혼스비 자동차 정비),car_repair,5,19,151.109382,-33.6966959,"U 1/14 Brennan Cl, Asquith NSW 2077, Australia"
102,Asquith,2077,John Scott Motors,car_repair,5,58,151.1107531,-33.6947641,"41 Salisbury Rd, Asquith NSW 2077, Australia"
102,Asquith,2077,Mobilemec,car_repair,5,7,151.109475,-33.697024,"1/15 Brennan Cl, Asquith NSW 2077, Australia"
102,Asquith,2077,Collide A Scope Motorcycle,car_repair,4.3,28,151.110048,-33.69386800000001,"11/45 Salisbury Rd, Asquith NSW 2077, Australia"
102,Asquith,2077,Asquith Body Works PTY Ltd.,car_repair,3.9,28,151.1107453,-33.6949684,"39 Salisbury Rd, Asquith NSW 2077, Australia"
102,Asquith,2077,Hornsby Prestige Smash Repairs,car_repair,3.8,86,151.109804,-33.694771,"7 Kelray Pl, Asquith NSW 2077, Australia"
102,Asquith,2077,Clarke Automotive,car_repair,4.9,21,151.110318,-33.696215,"6 Brennan Cl, Asquith NSW 2077, Australia"
102,Asquith,2077,Quest Collision Centre,car_repair,4.2,30,151.1098678,-33.6934961,"49-51 Salisbury Rd, Asquith NSW 2077, Australia"
105,Auburn,2144,Mona Motor Repairs,car_repair,4.7,116,151.021195,-33.8480295,"23 Chisholm Rd, Auburn NSW 2144, Australia"
105,Auburn,2144,Auburn Diesel & Motor Repairs,car_repair,4.8,5,151.02806,-33.843909,"2 Hampstead Rd, Auburn NSW 2144, Australia"
105,Auburn,2144,MIR Motors,car_repair,3.9,45,151.0392913,-33.8502273,"56 Percy St, Auburn NSW 2144, Australia"
105,Auburn,2144,Reconditioning Services,car_repair,4.6,12,151.029101,-33.842696,"1/28-30 Hampstead Rd, Auburn NSW 2144, Australia"
105,Auburn,2144,Inan Auto Workshop,car_repair,3.9,58,151.0276082,-33.8420693,"5/14-16 Byrne St, Auburn NSW 2144, Australia"
105,Auburn,2144,B & M Fuel Injection Pty Ltd,car_repair,3,9,151.023233,-33.876008,"17 Princes Rd E, Auburn NSW 2144, Australia"
105,Auburn,2144,Currans Accident Repair Center,car_repair,4.2,26,151.0380136,-33.8513351,"7-9 Rawson St, Auburn NSW 2144, Australia"
105,Auburn,2144,ECU Automotives,car_repair,4.6,108,151.0325076,-33.8546493,"74-78 Auburn Rd, Auburn NSW 2144, Australia"
105,Auburn,2144,Doulman Automotive Services,car_repair,4.3,31,151.0411921,-33.8489021,"3/15 Percy St, Auburn NSW 2144, Australia"
105,Auburn,2144,DCD Smash & Auto Repairs,car_repair,3.5,12,151.0326018,-33.8483179,"119 Rawson St, Auburn NSW 2144, Australia"
105,Auburn,2144,Vince Curran's Accident Repair Centre,car_repair,0,0,151.0377844,-33.851447,"7 Rawson St, Auburn NSW 2144, Australia"
105,Auburn,2144,Cullens Smash Repairs,car_repair,4.6,66,151.03216,-33.838598,"Unit 9/11 Newton St S, Auburn NSW 2144, Australia"
105,Auburn,2144,Auto Professional,car_repair,3.7,28,151.0360192,-33.8415645,"200-202 Parramatta Rd, Auburn NSW 2144, Australia"
105,Auburn,2144,Autolux,car_repair,4.9,121,151.0298743,-33.8414801,"52 Hampstead Rd, Auburn NSW 2144, Australia"
105,Auburn,2144,RJK Automotives,car_repair,3.7,14,151.028888,-33.85813,"110 Park Rd, Auburn NSW 2144, Australia"
105,Auburn,2144,Redline Rotary,car_repair,5,7,151.036294,-33.841926,"194 Parramatta Rd, Auburn NSW 2144, Australia"
105,Auburn,2144,Autobarn Auburn,car_repair,4,211,151.0270278,-33.8370602,"Shop B/1 Duck St, Auburn NSW 2144, Australia"
105,Auburn,2144,Crowhurst Auto Electrical,car_repair,4.5,29,151.0299555,-33.8411747,"6 Highgate St, Auburn NSW 2144, Australia"
105,Auburn,2144,Auburn Canopy Centre Pty Ltd.,car_repair,4.7,45,151.0265542,-33.8373952,"293 Parramatta Rd, Auburn NSW 2144, Australia"
105,Auburn,2144,Supercheap Auto Auburn,car_repair,4,776,151.0319191,-33.8392686,"233-239 Parramatta Rd, Auburn NSW 2144, Australia"
105,Auburn,2144,Fantastic Auto Pty Ltd,car_repair,3.3,9,151.0195589,-33.875595,"5/22-24 Princes Rd E, Auburn NSW 2144, Australia"
105,Auburn,2144,Bebco Auto Parts,car_repair,5,6,151.0235563,-33.8758252,"15 Princes Rd E, Auburn NSW 2144, Australia"
107,Austinmer,2515,Anderson Automotive Austinmer,car_repair,5,3,150.938837,-34.300451,"42/44 Lawrence Hargrave Dr, Austinmer NSW 2515, Australia"
108,Austral,2179,Macri Motor Repairs & Plant Hire,car_repair,4,7,150.8133719,-33.9282713,"305 Edmondson Ave, Austral NSW 2171, Australia"
108,Austral,2179,Habib Bros,car_repair,4.6,18,150.807203,-33.940867,"125 Fourth Ave, Austral NSW 2179, Australia"
108,Austral,2179,Parts Central,car_repair,4.6,16,150.805504,-33.940702,"125C Fourth Ave, Austral NSW 2179, Australia"
111,Avalon Beach,2107,Avalon Auto Repairs,car_repair,0,0,151.3197707,-33.6399436,"30 Avalon Parade, Avalon Beach NSW 2107, Australia"
111,Avalon Beach,2107,Avalon Garage,car_repair,4.4,7,151.33431,-33.6259371,"664 Barrenjoey Rd, Avalon Beach NSW 2107, Australia"
118,Awaba,2283,Kyle's Conversions,car_repair,4,4,151.542201,-33.016355,"12 Sydney St, Awaba NSW 2283, Australia"
146,Balgowlah,2093,Balgowlah Automotive,car_repair,4.8,66,151.258983,-33.794576,"439-441 Sydney Rd, Balgowlah NSW 2093, Australia"
146,Balgowlah,2093,BimmerTech,car_repair,4.9,15,151.2693346,-33.7875289,"5/2 Paton Pl, Balgowlah NSW 2093, Australia"
146,Balgowlah,2093,A.R.K. Automotive,car_repair,5,30,151.2695712,-33.78757909999999,"Unit 3/2 Paton Pl, Balgowlah NSW 2093, Australia"
146,Balgowlah,2093,Mobile Car Battery Replacements Balgowlah,car_repair,0,0,151.2563083,-33.8002106,"22 New St W, Balgowlah NSW 2093, Australia"
146,Balgowlah,2093,Blasini & Davis,car_repair,4.9,45,151.2686521,-33.7870544,"67 Kenneth Rd, Balgowlah NSW 2093, Australia"
146,Balgowlah,2093,Buchanan Automotive,car_repair,4.8,19,151.2698013,-33.7875825,"2 Paton Pl, Balgowlah NSW 2093, Australia"
148,Balgownie,2519,MGK AUTOMOTIVE,car_repair,5,23,150.8803028,-34.38859,"118 Balgownie Rd, Balgownie NSW 2519, Australia"
148,Balgownie,2519,Touch 'N Go,car_repair,5,1,150.874627,-34.388462,"171 Balgownie Rd, Balgownie NSW 2519, Australia"
155,Ballina,2478,Repco Authorised Car Service Ballina,car_repair,3.7,7,153.5552988,-28.8466923,"17 Piper Dr, Ballina NSW 2478, Australia"
155,Ballina,2478,K & T Ballina Mechanical,car_repair,4.4,27,153.5564896,-28.8506866,"13 Ray O'Neill Cres, Ballina NSW 2478, Australia"
155,Ballina,2478,Ballina Mowers t/a Ballina Power Equipment,car_repair,0,0,153.5544327,-28.8479088,"Unit2/45 Southern Cross Dr, Ballina NSW 2478, Australia"
155,Ballina,2478,Ballina Carfix,car_repair,3.2,11,153.5529302,-28.8462609,"6/59 Southern Cross Drive, (Enter De Havilland Crescent), Ballina NSW 2478, Australia"
155,Ballina,2478,Ballina Car Care Centre,car_repair,4.9,7,153.5558499,-28.8506524,"23 Ray O'Neill Cres, Ballina NSW 2478, Australia"
155,Ballina,2478,Dancer's Car Care,car_repair,4.8,21,153.5555598,-28.8471334,"13 Piper Dr, Ballina NSW 2478, Australia"
155,Ballina,2478,Stanger Automatics,car_repair,4.9,13,153.5565408,-28.8483579,"46 De-Havilland Cres, Ballina NSW 2478, Australia"
155,Ballina,2478,Ballina Spares,car_repair,3.5,6,153.5603538,-28.8451036,"Unit 1/200 Southern Cross Dr, Ballina NSW 2478, Australia"
155,Ballina,2478,My Mechanic,car_repair,4.9,31,153.555749,-28.868971,"256 River St, Ballina NSW 2478, Australia"
155,Ballina,2478,Singhs Tyre & Mechanical,car_repair,4.3,29,153.550008,-28.865817,"327 River St, Ballina NSW 2478, Australia"
155,Ballina,2478,Far North Coast Panel Repairs,car_repair,5,4,153.5538369,-28.8436492,"1/43 Piper Dr, Ballina NSW 2478, Australia"
155,Ballina,2478,Drive In Tune,car_repair,5,11,153.5595202,-28.8703366,"5/174 River St, Ballina NSW 2478, Australia"
155,Ballina,2478,Ballina Automatics,car_repair,4.8,12,153.5547295,-28.8472659,"27 De-Havilland Cres, Ballina NSW 2478, Australia"
155,Ballina,2478,Ballina Tyrepower,car_repair,4.5,37,153.5563616,-28.8500459,"1/22 Ray O'Neill Cres, Ballina NSW 2478, Australia"
155,Ballina,2478,Ballina Suspension,car_repair,4.1,11,153.554922,-28.848953,"u2/32 Southern Cross Dr, Ballina NSW 2478, Australia"
155,Ballina,2478,Tyreplus Ballina,car_repair,4.9,56,153.5542856,-28.8467495,"Shed 1/23 De-Havilland Cres, Ballina NSW 2478, Australia"
155,Ballina,2478,Supercheap Auto Ballina,car_repair,4.2,236,153.5540785,-28.8508931,"Ballina NSW 2478, Australia"
155,Ballina,2478,Repco Ballina,car_repair,3.8,29,153.5574863,-28.8514392,"11-13 Southern Cross Dr, Ballina NSW 2478, Australia"
155,Ballina,2478,RV & Caravan Centre,car_repair,3.9,45,153.555127,-28.851449,"6 Ray O'Neill Cres, Ballina NSW 2478, Australia"
155,Ballina,2478,BTA 4WD Centre,car_repair,4.3,19,153.5522194,-28.8441365,"Southern Cross Dr, Ballina NSW 2478, Australia"
155,Ballina,2478,Paradise Dent Removals,car_repair,4.2,5,153.5532713,-28.8457765,"2/13 De-Havilland Cres, Ballina NSW 2478, Australia"
155,Ballina,2478,A1 Ballina Exhausts Undercar & Radiator Service,car_repair,5,1,153.5543706,-28.843062,"1/48 Piper Dr, Ballina NSW 2478, Australia"
155,Ballina,2478,TJM Ballina,car_repair,4.8,23,153.556208,-28.85164799999999,"6 Southern Cross Dr, Ballina NSW 2478, Australia"
155,Ballina,2478,BSJ AUTO ELECTRICS,car_repair,4.8,33,153.5548984,-28.8442246,"27 Cessna Cres, Ballina NSW 2478, Australia"
155,Ballina,2478,Scooters & Mobility Ballina,car_repair,4,4,153.5557608,-28.8690085,"256 River St, Ballina NSW 2478, Australia"
155,Ballina,2478,mycar Tyre and Auto Service Ballina,car_repair,4.2,46,153.5599825,-28.8593936,"Ballina Central Shopping Centre Ground Level Carpark Cnr Fox &, Kerr St, Ballina NSW 2478, Australia"
155,Ballina,2478,B-line auto,car_repair,4.6,19,153.5566413,-28.8484842,"6/46 De-Havilland Cres, Ballina NSW 2478, Australia"
155,Ballina,2478,Autobarn Ballina,car_repair,4.6,43,153.532136,-28.8644902,"Cnr River Street &, Quays Dr, Ballina NSW 2478, Australia"
155,Ballina,2478,Thommos Automotive Repair Centre,car_repair,4.7,19,153.564625,-28.8706722,"35 Tamar St, Ballina NSW 2478, Australia"
155,Ballina,2478,Ballina Automotive Services,car_repair,5,15,153.5542856,-28.8486068,"3/38 Southern Cross Dr, Ballina NSW 2478, Australia"
155,Ballina,2478,Pacific Garage,car_repair,4.2,14,153.5552665,-28.8467339,"17 Piper Dr, Ballina NSW 2478, Australia"
155,Ballina,2478,Ballina Car Centre,car_repair,3.6,43,153.558607,-28.85305,"16 Endeavour Cl, Ballina NSW 2478, Australia"
155,Ballina,2478,Bill H's Mechanical Repairs,car_repair,5,4,153.555943,-28.847434,"6/9 Piper Dr, Ballina NSW 2478, Australia"
155,Ballina,2478,"BCMC RV Service Centre (Ballina Campervans, Motorhomes, Caravans)",car_repair,5,8,153.556027,-28.8465292,"16 Piper Dr, Ballina NSW 2478, Australia"
155,Ballina,2478,Ballina Motorcycles,car_repair,4.6,54,153.5558605,-28.8666637,"21 Kerr St, Ballina NSW 2478, Australia"
155,Ballina,2478,Quayside Motors,car_repair,3.9,45,153.5380556,-28.8630556,"Cnr Pacific Highway and, Ronan Pl, Ballina NSW 2478, Australia"
155,Ballina,2478,Ballina Rego & Mechanical Centre,car_repair,4.6,22,153.5638939,-28.8572185,"16 Sheather St, Ballina NSW 2478, Australia"
155,Ballina,2478,Ballina Mechanical and LPG,car_repair,4.7,35,153.5544428,-28.8430558,"1/48 Piper Dr, Ballina NSW 2478, Australia"
155,Ballina,2478,North Ballina Smash Repairs,car_repair,4.6,19,153.554738,-28.848805,"34 Southern Cross Dr, Ballina NSW 2478, Australia"
155,Ballina,2478,Rogers Automotive Panel & Paint,car_repair,5,1,153.5560939,-28.851192,"5 Ray O'Neill Cres, Ballina NSW 2478, Australia"
155,Ballina,2478,Quick Fix Automotive Ballina,car_repair,4.7,46,153.5568031,-28.84980779999999,"3/23 Southern Cross Dr, Ballina NSW 2478, Australia"
155,Ballina,2478,Quayside Mitsubishi,car_repair,3.9,7,153.5380584,-28.8629212,"Pacific Highway & Ronan Place, Ballina NSW 2478, Australia"
155,Ballina,2478,Clarkys Auto Care,car_repair,4.8,15,153.5525337,-28.8435952,"1/1 Convair Ave, Ballina NSW 2478, Australia"
155,Ballina,2478,European Automotive Ballina,car_repair,4.1,32,153.5553202,-28.8491375,"28 Southern Cross Dr, Ballina NSW 2478, Australia"
155,Ballina,2478,Central Ballina Service Centre,car_repair,5,9,153.554362,-28.84676,"3/23 De-Havilland Cres, Ballina NSW 2478, Australia"
155,Ballina,2478,Car Experts Ballina,car_repair,4.3,18,153.5636678,-28.8556818,"1 Sheather St, Ballina NSW 2478, Australia"
158,Balmain,2041,Balmain Automotive,car_repair,4,19,151.1776503,-33.8557971,"5 North St, Balmain NSW 2041, Australia"
158,Balmain,2041,Hume Marine,car_repair,4.9,10,151.1900232,-33.8604401,"6 Roberts street, Balmain NSW 2041, Australia"
167,Bangalow,2479,Bangalow Automotive Repairs,car_repair,4.8,5,153.5217054,-28.68517589999999,"16 Granuaille Rd, Bangalow NSW 2479, Australia"
167,Bangalow,2479,Bangalow Auto Centre & Bangalow Towing.,car_repair,4.1,13,153.5093759,-28.698526,"LOT 22 Dudgeons Ln, Bangalow NSW 2479, Australia"
167,Bangalow,2479,Solways Tyre & Mechanical,car_repair,4.3,4,153.5255214,-28.6865277,"54 Byron St, Bangalow NSW 2479, Australia"
167,Bangalow,2479,Bangalow Smash Repairs,car_repair,0,0,153.5079584,-28.698166,"LOT 29 Bugam Pl, Bangalow NSW 2479, Australia"
171,Banksia,2216,Supercheap Auto Rockdale,car_repair,4,695,151.1412099,-33.9466684,"328-336 Princes Hwy, Banksia NSW 2216, Australia"
171,Banksia,2216,Jeff Mills Auto Electrics & Mechanical,car_repair,4.3,25,151.1421712,-33.9444591,"284 Princes Hwy, Banksia NSW 2216, Australia"
171,Banksia,2216,Pro Worx Performance,car_repair,4.3,6,151.1423556,-33.9445604,"286 Princes Hwy, Banksia NSW 2216, Australia"
171,Banksia,2216,Collins Honda Dealership Sydney,car_repair,3.8,255,151.1408673,-33.9457609,"339 Princes Hwy, Banksia NSW 2216, Australia"
171,Banksia,2216,Honda Parts,car_repair,0,0,151.1407414,-33.9455529,"Banksia NSW 2216, Australia"
171,Banksia,2216,KmacAlign,car_repair,4.6,7,151.1404109,-33.9464489,"118 Hattersley St, Banksia NSW 2216, Australia"
171,Banksia,2216,Collins Honda Service Centre Sydney,car_repair,4.2,5,151.1408798,-33.9455065,"92 Hattersley St, Banksia NSW 2216, Australia"
172,Banksmeadow,2019,Chris & Sons Motor Repairs,car_repair,5,4,151.2088561,-33.9587961,"1729 Botany Rd, Banksmeadow NSW 2019, Australia"
172,Banksmeadow,2019,JV Automotive Service and Tyre centre,car_repair,4.5,22,151.2131917,-33.9477656,"Unit 6/3 Anderson St, Banksmeadow NSW 2019, Australia"
172,Banksmeadow,2019,Capital S.M.A.R.T Repairs Botany,car_repair,3.9,87,151.2147746,-33.9437819,"9-11 Green St, Banksmeadow NSW 2019, Australia"
172,Banksmeadow,2019,Bayside Smash Repairs PTY Ltd.,car_repair,5,2,151.2050951,-33.9553404,"1374 Botany Rd, Banksmeadow NSW 2019, Australia"
172,Banksmeadow,2019,Paddington Prestige Smash Repairs,car_repair,4.3,31,151.215515,-33.944573,"10 Baker St, Banksmeadow NSW 2019, Australia"
172,Banksmeadow,2019,CENTRAL AUTOMATICS TRANSMISSION SERVICES,car_repair,4.9,71,151.2131005,-33.9475437,"1a/3 Anderson St, Banksmeadow NSW 2019, Australia"
172,Banksmeadow,2019,KCG Automotive,car_repair,0,0,151.208572,-33.95753,"Site C/1 McPherson St, Banksmeadow NSW 2019, Australia"
172,Banksmeadow,2019,Car Caring Pty Ltd,car_repair,4.7,23,151.2195615,-33.946994,"Unit 5/9-19 Meadow Way, Banksmeadow NSW 2019, Australia"
172,Banksmeadow,2019,McLeods Garage,car_repair,4,1,151.2085522,-33.9588038,"1725 Botany Rd, Banksmeadow NSW 2019, Australia"
172,Banksmeadow,2019,JGN Autobody,car_repair,5,5,151.208834,-33.958309,"19 Greenfield St, Banksmeadow NSW 2019, Australia"
172,Banksmeadow,2019,Trelleborg Port Services,car_repair,0,0,151.2088482,-33.9576583,"4/2-6 Greenfield St, Banksmeadow NSW 2019, Australia"
173,Bankstown,2200,Quang Tuyen - Mechanic,car_repair,3.9,27,151.030154,-33.9237437,"194 Chapel Rd, Bankstown NSW 2200, Australia"
173,Bankstown,2200,Totally Smashed Body Repairs,car_repair,4.6,25,151.0362817,-33.9307088,"22 Arkley St, Bankstown NSW 2200, Australia"
173,Bankstown,2200,All Star Mechanics,car_repair,4.7,23,151.033365,-33.931556,"45 Hoskins Ave, Bankstown NSW 2200, Australia"
173,Bankstown,2200,AEA Auto & Marine Upholstery,car_repair,4.8,24,151.0359689,-33.9353262,"1/38 Canterbury Rd, Bankstown NSW 2200, Australia"
173,Bankstown,2200,Ultra Tune Bankstown,car_repair,4.3,39,151.031172,-33.9209367,"Cnr &, Chapel Rd, Bankstown NSW 2200, Australia"
173,Bankstown,2200,Mercedes Workshop,car_repair,0,0,151.036897,-33.935725,"8 Fairford Rd, Bankstown NSW 2200, Australia"
173,Bankstown,2200,JAX Tyres & Auto Bankstown,car_repair,4.4,203,151.0330808,-33.9339673,"143 Canterbury Rd, Bankstown NSW 2200, Australia"
173,Bankstown,2200,BPS Autobody,car_repair,5,5,151.0348091,-33.9331337,"17 Cottam Ave, Bankstown NSW 2200, Australia"
173,Bankstown,2200,Solano's Smash & Restoration,car_repair,5,11,151.037244,-33.928786,"66 Stacey St, Bankstown NSW 2200, Australia"
173,Bankstown,2200,"Dantrans Automotive - Automatic transmission, Sydney, Mechanic Bankstown",car_repair,4.3,18,151.0329029,-33.9314332,"43 Hoskins Ave, Bankstown NSW 2200, Australia"
173,Bankstown,2200,Precision,car_repair,4.6,5,151.0345873,-33.932072,"31-33 Cottam Ave, Bankstown NSW 2200, Australia"
173,Bankstown,2200,Sydney Collision Centre,car_repair,4.8,33,151.0326197,-33.9321158,"26 Clements Ave, Bankstown NSW 2200, Australia"
173,Bankstown,2200,Body Perfect Group,car_repair,4.3,7,151.0347101,-33.9331165,"17 Cottam Ave, Bankstown NSW 2200, Australia"
173,Bankstown,2200,Exceller Steering Service,car_repair,4.9,22,151.034928,-33.932697,"26 Exceller Ave, Bankstown NSW 2200, Australia"
173,Bankstown,2200,RM Body Works,car_repair,5,4,151.0338835,-33.9319762,"34 Cottam Ave, Bankstown NSW 2200, Australia"
173,Bankstown,2200,Supercheap Auto Bankstown,car_repair,3.8,452,151.0304623,-33.9321059,"49 Chapel Rd S, Bankstown NSW 2200, Australia"
173,Bankstown,2200,O'Brien® AutoGlass Bankstown,car_repair,4.3,33,151.0374703,-33.9284889,"68 Stacey St, Bankstown NSW 2200, Australia"
173,Bankstown,2200,Bob Jane T-Marts,car_repair,4.5,304,151.0274411,-33.93403730000001,"164 Canterbury Rd, Bankstown NSW 2200, Australia"
173,Bankstown,2200,Steve's Automotive,car_repair,4.7,10,151.0360181,-33.9355606,"7/38 Canterbury Rd, Bankstown NSW 2200, Australia"
173,Bankstown,2200,Chris's Spanner Works Pty Ltd,car_repair,4.3,6,151.034231,-33.9338369,"3 Cottam Ave, Bankstown NSW 2200, Australia"
173,Bankstown,2200,Precision Smash Repairs,car_repair,4.9,18,151.034559,-33.9320921,"31-33 Cottam Ave, Bankstown NSW 2200, Australia"
173,Bankstown,2200,Golden Tyre & Auto Centre,car_repair,3.9,33,151.0309287,-33.9210158,"2/252 Chapel Rd, Bankstown NSW 2200, Australia"
173,Bankstown,2200,Custom Bodyworks,car_repair,5,8,151.03374,-33.9334568,"10 Cottam Ave, Bankstown NSW 2200, Australia"
173,Bankstown,2200,Sydney Automatic Transmission Specialists,car_repair,4.4,26,151.033909,-33.9308565,"42 Hoskins Ave, Bankstown NSW 2200, Australia"
173,Bankstown,2200,"Rm Body Works, Panel Beaters, Bankstown",car_repair,5,2,151.0338459,-33.9319844,"Cottam Ave, Bankstown NSW 2200, Australia"
173,Bankstown,2200,Repco Bankstown,car_repair,3.9,85,151.0276117,-33.9340036,"164 Canterbury Rd, Bankstown NSW 2200, Australia"
173,Bankstown,2200,HN Reliable Electrical,car_repair,5,2,151.0246733,-33.91574,"25 Gail Pl, Bankstown NSW 2200, Australia"
173,Bankstown,2200,Condell Park Smash Repairs,car_repair,4.6,7,151.0126706,-33.9311937,"148 Eldridge Rd, Bankstown NSW 2200, Australia"
173,Bankstown,2200,Battery World,car_repair,4.5,31,151.0286826,-33.9323077,"9-67 Chapel Road South Bankstown Home Central G01A, Bankstown NSW 2200, Australia"
173,Bankstown,2200,M & S Smash Repairs,car_repair,3.1,20,151.0134353,-33.9313385,"136/142 Eldridge Rd, Bankstown NSW 2200, Australia"
173,Bankstown,2200,Y&F AUTOBODY,car_repair,5,6,151.0106598,-33.9305147,"157 Eldridge Rd, Bankstown NSW 2200, Australia"
173,Bankstown,2200,Doran Pro Audio,car_repair,4.5,13,151.0359689,-33.9353262,"6/42 Canterbury Rd, Bankstown NSW 2200, Australia"
173,Bankstown,2200,BK RACE ENGINES,car_repair,5,4,151.0357306,-33.9285659,"Unit 14/15-17 Gartmore Ave, Bankstown NSW 2200, Australia"
173,Bankstown,2200,BCF,car_repair,4.3,159,151.0303902,-33.9319101,"9-67 Chapel Rd, Bankstown NSW 2200, Australia"
173,Bankstown,2200,M G A Motor Repairs,car_repair,4.8,35,151.034488,-33.931709,"59 Hoskins Ave, Bankstown NSW 2200, Australia"
173,Bankstown,2200,Long Phuoc Motor Repairs,car_repair,5,3,151.0378826,-33.9292788,"62 Stacey St, Bankstown NSW 2200, Australia"
173,Bankstown,2200,Johns Motor Services,car_repair,4.8,14,151.002051,-33.9194773,"35 Allingham St, Bankstown NSW 2200, Australia"
173,Bankstown,2200,Bankstown Auto Electrics,car_repair,4.3,48,151.035263,-33.9343986,"119 Canterbury Rd, Bankstown NSW 2200, Australia"
173,Bankstown,2200,Condell Park Motor Spares + Batteries,car_repair,4.2,14,151.013443,-33.915866,"128 Edgar St, Bankstown NSW 2200, Australia"
173,Bankstown,2200,Co Co Auto Repairs,car_repair,4.4,10,151.030753,-33.9217038,"Cambridge Ave, Bankstown NSW 2200, Australia"
173,Bankstown,2200,"Midas Bankstown - Car Service, Mechanics, Brake & Suspension Experts",car_repair,3.6,53,151.0309429,-33.9211874,"246 Chapel Rd S, Bankstown NSW 2000, Australia"
173,Bankstown,2200,Skaf Auto Parts,car_repair,4.4,73,151.029584,-33.9311146,"71-75 Chapel Road South, Bankstown NSW 2200, Australia"
173,Bankstown,2200,B & Z Auto Parts Repair,car_repair,3.7,24,151.0329529,-33.9317743,"32 Clements Avenue, Bankstown NSW 2200, Australia"
173,Bankstown,2200,Autobarn Bankstown,car_repair,4.1,149,151.0294351,-33.9317187,"9/9-49 Chapel Rd, Bankstown NSW 2200, Australia"
173,Bankstown,2200,Bankstown Collision Centre,car_repair,5,1,151.032775,-33.9314088,"41 Hoskins Ave, Bankstown NSW 2200, Australia"
173,Bankstown,2200,Longs Auto Repairs,car_repair,4.8,4,151.0312291,-33.9311323,"23 Hoskins Ave, Bankstown NSW 2200, Australia"
173,Bankstown,2200,Gartmore Smash Repairs,car_repair,5,1,151.036018,-33.928376,"11 Gartmore Ave, Bankstown NSW 2200, Australia"
173,Bankstown,2200,SSS Smash Repairs,car_repair,5,4,151.036556,-33.933047,"10 Warren Ave, Bankstown NSW 2200, Australia"
173,Bankstown,2200,C.N.R AUTOBODY,car_repair,4.6,36,151.034598,-33.933324,"12/14 Exceller Ave, Bankstown NSW 2200, Australia"
173,Bankstown,2200,mycar Tyre and Auto Service Bankstown,car_repair,3.8,70,151.0382718,-33.9154598,"Rickard Rd, Bankstown NSW 2200, Australia"
173,Bankstown,2200,KAS SMASH REPAIRS,car_repair,5,23,151.0345234,-33.9323743,"29 Cottam Ave, Bankstown NSW 2200, Australia"
174,Bankstown Aerodrome,2200,Injection Perfection,car_repair,4.8,19,150.9900333,-33.9153367,"Drover Rd &, Desoutter St, Bankstown Aerodrome NSW 2198, Australia"
180,Banora Point,2486,Twin Towns Tinting,car_repair,4.8,5,153.5330667,-28.2283228,"12 Rosslea Ct, Banora Point NSW 2486, Australia"
180,Banora Point,2486,Service 8,car_repair,5,2,153.542079,-28.2144768,"Banora Point NSW 2486, Australia"
188,Barden Ridge,2234,Dent King,car_repair,5,6,151.008939,-34.033576,"19 Sutcliffe Pl, Barden Ridge NSW 2234, Australia"
193,Bargo,2574,Bargo Motors,car_repair,4.7,14,150.5799159,-34.2924637,"110 Railside Ave, Bargo NSW 2574, Australia"
193,Bargo,2574,"Hill Top Pit Stop - Automotive centre, Mechanic Bargo",car_repair,5,3,150.573911,-34.2551974,"3030 Remembrance Driveway, Bargo NSW 2574, Australia"
193,Bargo,2574,JJ Performance Smash Repairs,car_repair,4.3,24,150.586573,-34.2995049,"3564 Remembrance Dr #2, Bargo NSW 2754, Australia"
193,Bargo,2574,Just Roberts Motorcycles,car_repair,0,0,150.582539,-34.294169,"280 Great Southern Rd, Bargo NSW 2574, Australia"
193,Bargo,2574,Wollondilly Towing,car_repair,0,0,150.5868807,-34.2995937,"Unit 2/3564 Remembrance Driveway, Bargo NSW 2574, Australia"
193,Bargo,2574,Savage Fibreglass,car_repair,0,0,150.582539,-34.294169,"5/280 Great Southern Rd, Bargo NSW 2574, Australia"
197,Barmedman,2668,Barmedman Motors Pty Ltd,car_repair,4.5,14,147.3869595,-34.144274,"63 Queen St, Barmedman NSW 2668, Australia"
200,Barraba,2347,Barraba Motors,car_repair,4.8,4,150.6093151,-30.380164,"14 Alice St, Barraba NSW 2347, Australia"
200,Barraba,2347,Phil Denyer Mechanical Repairs,car_repair,4.9,7,150.6097452,-30.3805813,"73 Queen St, Barraba NSW 2347, Australia"
201,Barrack Heights,2528,Leisure Coast Automotive,car_repair,3.5,6,150.8571651,-34.5590563,"56 Sunset Ave, Barrack Heights NSW 2528, Australia"
201,Barrack Heights,2528,Ron's Mechanical Repairs,car_repair,4.9,14,150.8587392,-34.5598057,"30 Lendine St, Barrack Heights NSW 2528, Australia"
201,Barrack Heights,2528,Steve Elphick Mechanical Repairs,car_repair,5,8,150.8570992,-34.5605014,"3/23 Sunset Ave, Barrack Heights NSW 2528, Australia"
201,Barrack Heights,2528,Sunset Mechanical Repairs,car_repair,4.4,22,150.8582841,-34.5587528,"6 Sunset Ave, Barrack Heights NSW 2528, Australia"
201,Barrack Heights,2528,A1 Mobile Auto Care,car_repair,4.6,12,150.8577423,-34.5607417,"1/22 Sunset Ave, Barrack Heights NSW 2528, Australia"
201,Barrack Heights,2528,Leisure Coast Car Care,car_repair,5,9,150.859449,-34.559665,"258 Shellharbour Rd, Barrack Heights NSW 2528, Australia"
201,Barrack Heights,2528,Tony & Shanes Mechanical Repairs,car_repair,4.8,10,150.8561014,-34.5605307,"1/40 Sunset Ave, Barrack Heights NSW 2528, Australia"
201,Barrack Heights,2528,Warilla Smash Repairs,car_repair,3.7,3,150.857442,-34.558623,"13 Sunset Ave, Barrack Heights NSW 2528, Australia"
201,Barrack Heights,2528,Illawarra Smash Repair Centre,car_repair,5,1,150.858257,-34.558715,"6 Sunset Ave, Barrack Heights NSW 2528, Australia"
201,Barrack Heights,2528,Montague Smash Repairs & Towing Service,car_repair,5,7,150.8583408,-34.5580854,"2 Sunset Ave, Barrack Heights NSW 2528, Australia"
201,Barrack Heights,2528,Revy's Auto Electrical & Air Conditioning,car_repair,4.8,28,150.8577257,-34.5604842,"1/20 Sunset Ave, Barrack Heights NSW 2528, Australia"
201,Barrack Heights,2528,Strut Re-Gas Illawarra South Coast,car_repair,3.5,4,150.851012,-34.566636,"80 Loftus Dr, Barrack Heights NSW 2528, Australia"
201,Barrack Heights,2528,Top Gun Panel & Paint,car_repair,5,1,150.8576001,-34.5607078,"3/22 Sunset Ave, Barrack Heights NSW 2528, Australia"
217,Bass Hill,2197,"Midas Bass Hill - Car Service, Mechanics, Brake & Suspension Experts",car_repair,4.8,65,150.9992625,-33.9005916,"864 Hume Hwy, Bass Hill NSW 2197, Australia"
217,Bass Hill,2197,Your Automotive Centre,car_repair,4.2,20,150.99488,-33.8978819,"928 Hume Hwy, Bass Hill NSW 2197, Australia"
222,Batemans Bay,2536,Batemans Bay Automotive Repairs,car_repair,4.8,28,150.1685028,-35.72189710000001,"3/53 Cranbrook Rd, Batemans Bay NSW 2536, Australia"
222,Batemans Bay,2536,Acco Motors,car_repair,4.4,14,150.174037,-35.720608,"3/6 Cranbrook Rd, Batemans Bay NSW 2536, Australia"
222,Batemans Bay,2536,Muir South Coast Automotive,car_repair,4.9,16,150.1766532,-35.7180937,"5/73 Russell St, Batemans Bay NSW 2536, Australia"
222,Batemans Bay,2536,Batemans Bay Registration Centre,car_repair,4.2,18,150.176782,-35.720063,"3/1-3 Hughes St, Batemans Bay NSW 2536, Australia"
222,Batemans Bay,2536,Coastal Auto Group Service Centre,car_repair,3.8,24,150.17107,-35.717007,"47 Kylie Cres, Batemans Bay NSW 2536, Australia"
222,Batemans Bay,2536,Repco Authorised Car Service Batemans Bay,car_repair,4.3,24,150.171143,-35.71962,"33 Cranbrook Rd, Batemans Bay NSW 2536, Australia"
222,Batemans Bay,2536,Waters Service Centre,car_repair,5,4,150.176835,-35.719001,"9 Russell St, Batemans Bay NSW 2536, Australia"
222,Batemans Bay,2536,Sms Services Centre,car_repair,4.9,12,150.166936,-35.721768,"1/65 Cranbrook Rd, Batemans Bay NSW 2536, Australia"
222,Batemans Bay,2536,Clyde Mitsubishi,car_repair,4.8,4,150.1756456,-35.7220149,"105 Old Princes Hwy, Batemans Bay NSW 2536, Australia"
222,Batemans Bay,2536,Bay Mechanical Services,car_repair,4.8,8,150.1748013,-35.716866,"1/8 Kylie Cres, Batemans Bay NSW 2536, Australia"
222,Batemans Bay,2536,Complete Caravan & Electrical,car_repair,4.4,17,150.175426,-35.719296,"35 Princes Hwy, Batemans Bay NSW 2536, Australia"
222,Batemans Bay,2536,Bay Auto Electrical,car_repair,4.5,27,150.17251,-35.7170239,"1/22 Kylie Cres, Batemans Bay NSW 2536, Australia"
222,Batemans Bay,2536,Southcoast Smash Repairs,car_repair,4.9,7,150.1742421,-35.71722,"4 Kylie Cres, Batemans Bay NSW 2536, Australia"
222,Batemans Bay,2536,Bluewater Auto Electrics / Mcqueen's,car_repair,3.8,6,150.1791935,-35.718343,"25 Gregory St, Batemans Bay NSW 2536, Australia"
222,Batemans Bay,2536,Bay Body Shop,car_repair,5,12,150.172596,-35.720707,"16 Cranbrook Rd, Batemans Bay NSW 2536, Australia"
222,Batemans Bay,2536,Cowling Automotive,car_repair,4.8,6,150.1743501,-35.7166898,"1/12 Kylie Cres, Batemans Bay NSW 2536, Australia"
222,Batemans Bay,2536,Batemans Bay Toyota,car_repair,5,2,150.17804,-35.708713,"39 Orient St, Batemans Bay NSW 2536, Australia"
222,Batemans Bay,2536,Clyde Auto Parts and Service,car_repair,5,6,150.1770029,-35.7195251,"1 Russell St, Batemans Bay NSW 2536, Australia"
222,Batemans Bay,2536,Batemans Bay Tyre & Battery Service,car_repair,4.9,50,150.1769247,-35.7176244,"65 Princes Hwy, Batemans Bay NSW 2536, Australia"
222,Batemans Bay,2536,Schumacher Automotive,car_repair,5,6,150.1738729,-35.7189526,"1/5 Sharon Rd, Batemans Bay NSW 2536, Australia"
222,Batemans Bay,2536,United Hail Repairs,car_repair,5,2,150.177383,-35.707023,"18a/12-18 Orient St, Batemans Bay NSW 2536, Australia"
222,Batemans Bay,2536,Tint Tech Window Tinting,car_repair,5,3,150.1745883,-35.7110404,"Vesper St, Batemans Bay NSW 2536, Australia"
222,Batemans Bay,2536,Stop N Go Tyres,car_repair,0,0,150.1768415,-35.7179794,"69 Princes Hwy, Batemans Bay NSW 2536, Australia"
222,Batemans Bay,2536,Burson Auto Parts,car_repair,4.2,9,150.1770067,-35.7182308,"71-73 Princes Hwy, Batemans Bay NSW 2536, Australia"
222,Batemans Bay,2536,BCF (Boating Camping Fishing) Batemans Bay,car_repair,4.4,120,150.1779308,-35.7096439,"49 Orient St, Batemans Bay NSW 2536, Australia"
222,Batemans Bay,2536,"Totally Equipped 4wd, Complete Caravan & Electrical",car_repair,4.6,14,150.1753761,-35.7192657,"36 Princes Hwy, Batemans Bay NSW 2536, Australia"
222,Batemans Bay,2536,Clyde Auto,car_repair,0,0,150.1754742,-35.7220098,"105 Princes Hwy, Batemans Bay NSW 2536, Australia"
222,Batemans Bay,2536,Totally Equipped 4wd - Complete Caravan & Electrical,car_repair,4.9,14,150.175426,-35.719296,"36 Princes Hwy, Batemans Bay NSW 2536, Australia"
222,Batemans Bay,2536,Eurobodalla Bodyworks,car_repair,4.6,9,150.1687011,-35.7219399,"51 Cranbrook Rd, Batemans Bay NSW 2536, Australia"
222,Batemans Bay,2536,South Coast Hyundai,car_repair,5,14,150.1778146,-35.7088561,"41 Orient St, Batemans Bay NSW 2536, Australia"
222,Batemans Bay,2536,Tyre Torque Batemans Bay,car_repair,4.9,39,150.1767225,-35.7184551,"75 Princes Hwy, Batemans Bay NSW 2536, Australia"
222,Batemans Bay,2536,Automatic Transmission Specialists,car_repair,4,4,150.1782254,-35.7194094,"40 Gregory St, Batemans Bay NSW 2536, Australia"
222,Batemans Bay,2536,Doc Ford Bosch Car Service,car_repair,4.6,10,150.1747278,-35.7200167,"Unit 1/5 Cranbrook Rd, Batemans Bay NSW 2536, Australia"
222,Batemans Bay,2536,Dawns Touch Ups,car_repair,0,0,150.1731005,-35.7206141,"5/12-14 Cranbrook Rd, Batemans Bay NSW 2536, Australia"
222,Batemans Bay,2536,Motosport Motorcycles,car_repair,0,0,150.173757,-35.716905,"16 Kylie Cres, Batemans Bay NSW 2536, Australia"
222,Batemans Bay,2536,TJM Batemans Bay,car_repair,0,0,150.1760281,-35.7172496,"9 Kylie Cres, Batemans Bay NSW 2536, Australia"
222,Batemans Bay,2536,Ultra Tune Batemans Bay,car_repair,4.9,41,150.1730978,-35.7203091,"1/12 Cranbrook Rd, Batemans Bay NSW 2536, Australia"
222,Batemans Bay,2536,South Coast Windscreens,car_repair,4.9,15,150.1744703,-35.7199746,"7 Cranbrook Rd, Batemans Bay NSW 2536, Australia"
222,Batemans Bay,2536,Industrial Replacements,car_repair,4.7,3,150.1678086,-35.7224531,"52 Cranbrook Rd, Batemans Bay NSW 2536, Australia"
222,Batemans Bay,2536,Batemans Bay Brake & Clutch Centre,car_repair,5,1,150.1737673,-35.7174132,"28 Kylie Cres, Batemans Bay NSW 2536, Australia"
222,Batemans Bay,2536,B&S Panels Smash Repairs,car_repair,5,3,150.172069,-35.719695,"27 Cranbrook Rd, Batemans Bay NSW 2536, Australia"
222,Batemans Bay,2536,Tyrepower Batemans Bay,car_repair,4.8,72,150.1734056,-35.716926,"18 Kylie Cres, Batemans Bay NSW 2536, Australia"
222,Batemans Bay,2536,Repco Batemans Bay,car_repair,4.4,30,150.176206,-35.7199952,"Unit 2/1 Hughes St, Batemans Bay NSW 2536, Australia"
222,Batemans Bay,2536,Supercheap Auto Batemans Bay,car_repair,4.4,103,150.177566,-35.709598,"49 Orient St, Batemans Bay NSW 2536, Australia"
222,Batemans Bay,2536,Batemans Bay Cycles,car_repair,4.5,15,150.174482,-35.711473,"unit b/23B Vesper St, Batemans Bay NSW 2536, Australia"
224,Bathurst,2795,Mick Muldoon Motorcycles,car_repair,4.8,35,149.5433333,-33.4152778,"13 Bradwardine Rd, Bathurst NSW 2795, Australia"
224,Bathurst,2795,Pedders Suspension Bathurst,car_repair,4.4,44,149.5823527,-33.4192834,"77 Bentinck St, Bathurst NSW 2795, Australia"
224,Bathurst,2795,Pirtek Bathurst,car_repair,5,1,149.5796986,-33.4127523,"112 Durham St, Bathurst NSW 2795, Australia"
224,Bathurst,2795,1A Welch's Towing & Welch's Highway Smash Bathurst,car_repair,5,11,149.6167379,-33.4120636,"7 Cambewarra Ct, Bathurst NSW 2795, Australia"
224,Bathurst,2795,AAA All Auto Batteries,car_repair,0,0,149.5782357,-33.4275134,"155 Havannah St, Bathurst NSW 2795, Australia"
224,Bathurst,2795,Bathurst Hyundai,car_repair,4.7,23,149.5479814,-33.4146307,"10 Corporation Ave, Bathurst NSW 2795, Australia"
224,Bathurst,2795,One Stop Auto Electrical,car_repair,4.9,14,149.5838052,-33.423409,"Shed 4/58 Russell St, Bathurst NSW 2795, Australia"
224,Bathurst,2795,Repco Bathurst,car_repair,4.4,53,149.5792201,-33.4122412,"128/130 Durham St, Bathurst NSW 2795, Australia"
224,Bathurst,2795,Ace Auto Electrics,car_repair,4.7,19,149.5876522,-33.4215862,"84 Havannah St, Bathurst NSW 2795, Australia"
224,Bathurst,2795,Taylors Motorcycles Services,car_repair,4.9,8,149.5399791,-33.413524,"8/72 Corporation Ave, Bathurst NSW 2795, Australia"
224,Bathurst,2795,Bob Jane T-Marts,car_repair,4.3,93,149.5817937,-33.4148854,"46-48 George St, Bathurst NSW 2795, Australia"
224,Bathurst,2795,Bathurst Batteries,car_repair,4.8,32,149.5877063,-33.4216537,"84 Havannah St, Bathurst NSW 2795, Australia"
224,Bathurst,2795,Browning's Smash Repairs,car_repair,4.9,42,149.540252,-33.41294,"74-76 Corporation Ave, Bathurst NSW 2795, Australia"
224,Bathurst,2795,Burson Auto Parts,car_repair,4.7,18,149.5740814,-33.4202406,"122 George St, Bathurst NSW 2795, Australia"
224,Bathurst,2795,Blatch Quality Smash Repairs,car_repair,4.8,16,149.61866,-33.420634,"6 PAT O'LEARY DRIVE KELSO, Bathurst NSW 2795, Australia"
224,Bathurst,2795,Bathurst Volkswagen,car_repair,3.4,9,149.5457515,-33.4140096,"4 Corporation Ave, Bathurst NSW 2795, Australia"
224,Bathurst,2795,Bathurst Automotive Repairs,car_repair,4.9,25,149.5791554,-33.4126409,"Rear, 93 Rankin St, Bathurst NSW 2795, Australia"
224,Bathurst,2795,Inwood Motors,car_repair,4.6,31,149.5791865,-33.4286383,"16a Lambert St, Bathurst NSW 2795, Australia"
224,Bathurst,2795,Steve Bayliss Motor Cycle Repairs,car_repair,5,4,149.5812536,-33.4312936,"3 Alpha St, Bathurst NSW 2795, Australia"
224,Bathurst,2795,Steve Lewis Automotive,car_repair,3.4,18,149.5759251,-33.4218322,"178 William St, Bathurst NSW 2795, Australia"
224,Bathurst,2795,Westend Auto Repairs,car_repair,4,19,149.5797032,-33.4290413,"2 Lambert St, Bathurst NSW 2795, Australia"
224,Bathurst,2795,Panorama Automotive,car_repair,3.7,12,149.5836902,-33.4234285,"2/58 Russell St, Bathurst NSW 2795, Australia"
224,Bathurst,2795,Bathurst Automotive 4x4,car_repair,0,0,149.5823996,-33.4192818,"77 Bentinck St, Bathurst NSW 2795, Australia"
224,Bathurst,2795,Greg Iacono Automotive,car_repair,4.7,20,149.5761747,-33.4358775,"62C Bant St, Bathurst NSW 2795, Australia"
224,Bathurst,2795,Beard Brothers Motorcycles,car_repair,4.4,44,149.5804068,-33.4124874,"123 Durham St, Bathurst NSW 2795, Australia"
224,Bathurst,2795,Auto-Mate Car Servicing,car_repair,4.3,18,149.5812536,-33.4312936,"3/3 Alpha St, Bathurst NSW 2795, Australia"
224,Bathurst,2795,Goodyear Autocare Bathurst,car_repair,3.9,44,149.579489,-33.414845,"223 Howick St, Bathurst NSW 2795, Australia"
224,Bathurst,2795,Brakepro Bathurst,car_repair,4.6,29,149.57916,-33.430908,"36 Bant St, Bathurst NSW 2795, Australia"
224,Bathurst,2795,Mitchell Batteries,car_repair,4.8,62,149.5783247,-33.42764100000001,"155 Havannah St, Bathurst NSW 2795, Australia"
224,Bathurst,2795,Jones Performance Vehicles,car_repair,4.7,15,149.5794085,-33.4291994,"7 Bant St, Bathurst NSW 2795, Australia"
224,Bathurst,2795,Bathurst Windscreens & Upholstery,car_repair,4.1,7,149.5834923,-33.4232292,"62 Russell St, Bathurst NSW 2795, Australia"
224,Bathurst,2795,Bathurst Auto Parts,car_repair,3.5,25,149.5800588,-33.4357318,"25 Kirkcaldy St, Bathurst NSW 2795, Australia"
224,Bathurst,2795,Repco Authorised Car Service Bathurst - Robinson Auto Repairs,car_repair,3.9,36,149.5782075,-33.4345956,"1 Vale Rd, Bathurst NSW 2795, Australia"
224,Bathurst,2795,Repco Authorised Car Service Bathurst - Windsor's Automotive,car_repair,4.8,56,149.6063083,-33.4193199,"49 Sydney Rd, Bathurst NSW 2795, Australia"
226,Batlow,2730,Pioneer Automotive,car_repair,4,6,148.145873,-35.51956,"18 Pioneer St, Batlow NSW 2730, Australia"
227,Baulkham Hills,2153,Merindah Service Centre,car_repair,4.3,53,150.9635188,-33.7555342,"2/217 Seven Hills Rd, Baulkham Hills NSW 2153, Australia"
227,Baulkham Hills,2153,Roadside Responder - Mobile Mechanic | Baulkham Hills,car_repair,0,0,150.9926068,-33.7600522,"24 Old Northern Rd, Baulkham Hills NSW 2153, Australia"
227,Baulkham Hills,2153,Tyrepower Baulkham Hills,car_repair,4.3,100,150.9926978,-33.7603952,"12 Central Pl, Baulkham Hills NSW 2153, Australia"
227,Baulkham Hills,2153,D&A Automotive Electrical Wholesalers,car_repair,0,0,151.002121,-33.760492,"3 Park Rd, Baulkham Hills NSW 2153, Australia"
233,Beacon Hill,2100,Kinian Motors,car_repair,5,2,151.254806,-33.752534,"214-224 Warringah Rd, Beacon Hill NSW 2100, Australia"
233,Beacon Hill,2100,Ecospray Car Wash Cafe,car_repair,4.6,195,151.254907,-33.7525733,"214-224 Warringah Rd, Beacon Hill NSW 2100, Australia"
233,Beacon Hill,2100,Manly Warringah Mobile Mechanics,car_repair,0,0,151.250936,-33.759169,"15 Goroka Pl, Beacon Hill NSW 2100, Australia"
234,Beaconsfield,2015,Inner City Smash,car_repair,4.8,88,151.202247,-33.9088737,"3/5 Victoria St, Beaconsfield NSW 2015, Australia"
249,Bega,2550,MGM Panelbeaters,car_repair,4.9,19,149.845464,-36.6838572,"13-17 Park St, Bega NSW 2550, Australia"
249,Bega,2550,Blue Water Windscreens,car_repair,4.8,12,149.826716,-36.666185,"3 West St, Bega NSW 2550, Australia"
249,Bega,2550,K-Model Beamer Bits,car_repair,0,0,149.8350342,-36.6943758,"45 Applegum Cl, Bega NSW 2550, Australia"
249,Bega,2550,South Coast Diesel & Hydraulics,car_repair,0,0,149.8453459,-36.6952912,"101 Boundary Rd, Bega NSW 2550, Australia"
249,Bega,2550,Kalaru Automotive,car_repair,5,5,149.9376273,-36.7347455,"502 Tathra Rd, Bega NSW 2550, Australia"
249,Bega,2550,V&H Motor Repairs,car_repair,4.6,5,149.8454134,-36.6722019,"47 Bega St, Bega NSW 2550, Australia"
249,Bega,2550,Les Hayes Automotive Services,car_repair,5,6,149.841862,-36.6718082,"8/85 Bega St, Bega NSW 2550, Australia"
249,Bega,2550,Specialised Automotive,car_repair,4.9,14,149.8402429,-36.6749145,"141 Auckland St, Bega NSW 2550, Australia"
249,Bega,2550,Anthony's Car & Head Centre,car_repair,4.3,24,149.8262006,-36.6660703,"5 John St, Bega NSW 2550, Australia"
249,Bega,2550,Toyota Service,car_repair,5,1,149.8419267,-36.6765818,"Bega NSW 2550, Australia"
249,Bega,2550,Finnerty Automotive,car_repair,4.2,14,149.8248796,-36.6665377,"56/58 West St, Bega NSW 2550, Australia"
249,Bega,2550,Bega Valley Suzuki,car_repair,0,0,149.8418476,-36.6766595,"73 Upper St, Bega NSW 2550, Australia"
249,Bega,2550,Tarra Ford,car_repair,4,20,149.8402043,-36.6755481,"Eastern Rural, 151 Auckland St, Bega NSW 2550, Australia"
249,Bega,2550,Tarra Mitsubishi,car_repair,4.1,14,149.8398234,-36.6752859,"151 Auckland St, Bega NSW 2550, Australia"
249,Bega,2550,Home Straight Smash Repairs,car_repair,5,3,149.8231643,-36.6656812,"28 Ridge St, Bega NSW 2550, Australia"
249,Bega,2550,Bega Tyrepower,car_repair,4.7,44,149.842539,-36.6724801,"10 Church St, Bega NSW 2550, Australia"
249,Bega,2550,Bega Truck and Tractor,car_repair,5,1,149.8249115,-36.66711859999999,"60-74 West St, Bega NSW 2550, Australia"
249,Bega,2550,Bega Muffler Centre,car_repair,5,8,149.8410749,-36.6717468,"47 Auckland St, Bega NSW 2550, Australia"
249,Bega,2550,Autopro,car_repair,4.4,16,149.842712,-36.676087,"115 Gipps St, Bega NSW 2550, Australia"
249,Bega,2550,South Coast Tyres,car_repair,4.7,6,149.8260998,-36.6656179,"North, 1 West St, Bega NSW 2550, Australia"
249,Bega,2550,Repco Bega,car_repair,4.3,7,149.838505,-36.673981,"276 Carp St, Bega NSW 2550, Australia"
249,Bega,2550,Supercheap Auto Bega,car_repair,4.2,111,149.8460534,-36.6744023,"Carp St &, Parker St, Bega NSW 2550, Australia"
249,Bega,2550,Beaurepaires for Tyres Bega,car_repair,4.3,22,149.8392192,-36.674013,"268 Carp St, Bega NSW 2550, Australia"
253,Belfield,2191,TK Mechanical Repairs,car_repair,5,8,151.0839486,-33.9016408,"35 Punchbowl Rd, Belfield NSW 2191, Australia"
253,Belfield,2191,Belfield Service Centre,car_repair,4.2,18,151.0852235,-33.908556,"4 Carter St, Belfield NSW 2191, Australia"
253,Belfield,2191,Maxit Auto Trim,car_repair,5,2,151.08106,-33.900343,"1 Birriwa Ave, Belfield NSW 2191, Australia"
253,Belfield,2191,Back on the Road - Mobile MechanicBelfield,car_repair,0,0,151.0843592,-33.9029476,"21 Burwood Rd, Belfield NSW 2191, Australia"
253,Belfield,2191,Sydmont,car_repair,0,0,151.08316,-33.901597,"81 Water St, Belfield NSW 2191, Australia"
253,Belfield,2191,Trojan Classic Motorcycles - Online Webstore,car_repair,4.4,12,151.084,-33.905,"Belfield NSW 2191, Australia"
253,Belfield,2191,SL Mufflers,car_repair,4.6,43,151.0757854,-33.9083786,"Unit 1/117 Punchbowl Rd, Belfield NSW 2191, Australia"
259,Bella Vista,2153,Embassy Ontime Collision Repair Consultants,car_repair,0,0,150.946552,-33.732148,"06/5 Celebration Dr, Bella Vista NSW 2153, Australia"
260,Bellambi,2518,Bellambi Motors,car_repair,4.9,7,150.9104287,-34.3707184,"81 Pioneer Rd, Bellambi NSW 2518, Australia"
260,Bellambi,2518,Autochange,car_repair,4.7,41,150.9118112,-34.3625483,"1/1 Pioneer Rd, Bellambi NSW 2518, Australia"
260,Bellambi,2518,Precision Automotive & Performance,car_repair,4.6,16,150.9058057,-34.3627109,"2/33 Bellambi Ln, Bellambi NSW 2518, Australia"
260,Bellambi,2518,Leisure Coast Auto Electrics & Mechanical,car_repair,4.7,14,150.9019775,-34.3618774,"81/83 Bellambi Ln, Bellambi NSW 2518, Australia"
260,Bellambi,2518,Dutchy’s Motorcycles spray painting,car_repair,4.5,2,150.9057989,-34.3625202,"1/33 Bellambi Ln, Bellambi NSW 2518, Australia"
260,Bellambi,2518,Black Diamond Auto Electrics,car_repair,5,9,150.9103065,-34.3706408,"81 Pioneer Rd, Bellambi NSW 2518, Australia"
264,Bellbird,2325,Bellbird Automotive Services,car_repair,4.4,14,151.3246726,-32.8542678,"380 Wollombi Rd, Bellbird NSW 2325, Australia"
265,Bellbird Heights,2325,C & P Automotive Services,car_repair,5,6,151.3292969,-32.8490352,"309 Wollombi Rd, Bellbird Heights NSW 2325, Australia"
267,Bellevue Hill,2023,Paul Stewart Automotive Repair,car_repair,3.5,40,151.2673478,-33.8852592,"120 Birriga Rd, Bellevue Hill NSW 2023, Australia"
269,Bellingen,2454,Belmech,car_repair,4.3,22,152.8952149,-30.4510781,"115 Hyde St, Bellingen NSW 2454, Australia"
269,Bellingen,2454,Bellingen Automotive,car_repair,4.3,9,152.8997688,-30.4528087,"20 Hyde St, Bellingen NSW 2454, Australia"
269,Bellingen,2454,M & K AUTOMOTIVE,car_repair,5,7,152.8958706,-30.45209149999999,"84/90 Hyde St, Bellingen NSW 2450, Australia"
269,Bellingen,2454,North Side Auto,car_repair,4.9,8,152.8980342,-30.4472785,"39 Hammond St, Bellingen NSW 2454, Australia"
269,Bellingen,2454,MJK Discovery Automotive Parts & Accessories,car_repair,4,4,152.847149,-30.465576,"527 Kalang Rd, Bellingen NSW 2454, Australia"
272,Belmont,2280,Belmont Motor Repairs,car_repair,4.8,27,151.6650237,-33.0271038,"10 Bluebell St, Belmont NSW 2280, Australia"
272,Belmont,2280,Belmont Automotive Service Centre,car_repair,4.4,22,151.6615503,-33.0297552,"4 Livingstone St, Belmont NSW 2280, Australia"
273,Belmont North,2280,Nymeyer Automotive,car_repair,5,4,151.6676733,-33.0201551,"328 Pacific Hwy, Belmont North NSW 2280, Australia"
275,Belmore,2192,Angel Motor Group Pty Ltd,car_repair,5,17,151.0886841,-33.9192505,"10 Collins St, Belmore NSW 2192, Australia"
275,Belmore,2192,SEOUL MOTORS REPAIR,car_repair,5,14,151.0831854,-33.9146998,"3/81-83 Lakemba St, Belmore NSW 2192, Australia"
275,Belmore,2192,CEC Automotive,car_repair,4.4,57,151.0956427,-33.9216145,"615 Canterbury Rd, Belmore NSW 2192, Australia"
275,Belmore,2192,Belmore Automotive Repairs,car_repair,5,3,151.0839308,-33.9143829,"71 Lakemba St, Belmore NSW 2192, Australia"
275,Belmore,2192,Star Ocean Auto Mechanical Repairs 星海汽修（潘师傅）,car_repair,4,40,151.085464,-33.913784,"47 Lakemba St, Belmore NSW 2192, Australia"
275,Belmore,2192,AKR Mechanical & Electrical,car_repair,4.8,147,151.093522,-33.92308,"658 Canterbury Rd, Belmore NSW 2192, Australia"
275,Belmore,2192,Swavley Smash Repairs,car_repair,4.9,23,151.0921033,-33.9239726,"706-710 Canterbury Rd, Belmore NSW 2192, Australia"
275,Belmore,2192,Kenwell Auto Repair Centre,car_repair,3,4,151.077525,-33.908383,"11 Minnie St, Belmore NSW 2192, Australia"
275,Belmore,2192,B&M Mechanical & Tyre Services,car_repair,4.5,30,151.0769699,-33.9079424,"442 Punchbowl Rd, Belmore NSW 2192, Australia"
275,Belmore,2192,K and Y Sydney Smash & Mechanic Repair Pty Ltd,car_repair,4.2,25,151.084987,-33.9141937,"55 Lakemba St, Belmore NSW 2192, Australia"
275,Belmore,2192,Sharp Street Smash Repairs,car_repair,4.8,29,151.094528,-33.921967,"53 Sharp St, Belmore NSW 2192, Australia"
275,Belmore,2192,TCR Automotive Centre,car_repair,3.8,9,151.0833268,-33.9148693,"83 Lakemba St, Belmore NSW 2192, Australia"
275,Belmore,2192,Autoparts Belmore,car_repair,4.6,5,151.0769825,-33.9092938,"4/112 Benaroon Rd, Belmore NSW 2192, Australia"
275,Belmore,2192,Green Auto Service Belmore,car_repair,4.1,18,151.0848153,-33.9140627,"57 Lakemba St, Belmore NSW 2192, Australia"
275,Belmore,2192,Superol Service centre,car_repair,3.7,21,151.0902023,-33.9196124,"32 Leylands Parade, Belmore NSW 2192, Australia"
275,Belmore,2192,Maatouks Tyrepower Belmore,car_repair,4.6,80,151.085921,-33.913878,"232 Burwood Rd, Belmore NSW 2192, Australia"
275,Belmore,2192,One Up Automotive,car_repair,4.2,18,151.0847465,-33.9141822,"59 Lakemba St, Belmore NSW 2192, Australia"
279,Belrose,2085,Belrose Service Centre,car_repair,4.2,20,151.2174463,-33.7284795,"117 Pringle Ave, Belrose NSW 2085, Australia"
279,Belrose,2085,Belrose Auto Care- Caltex Belrose - Mechanical Repairs,car_repair,4.5,40,151.2211619,-33.7347247,"157 Forest Way, Belrose NSW 2085, Australia"
279,Belrose,2085,Express Mobile Mechanic | Belrose,car_repair,0,0,151.2168732,-33.7285097,"25 Ralston Ave, Belrose NSW 2085, Australia"
282,Ben Bullen,2790,Down Under Diesel Tuning,car_repair,4.7,9,150.0355348,-33.2427646,"3076 Castlereagh Hwy, Ben Bullen NSW 2790, Australia"
292,Bennetts Green,2290,Mark Hancock Automotive,car_repair,4.9,30,151.689275,-32.999351,"4/12 Statham St, Bennetts Green NSW 2290, Australia"
292,Bennetts Green,2290,David Brown Automotive,car_repair,4.5,30,151.691527,-32.995263,"1/8 Abdon Cl, Bennetts Green NSW 2290, Australia"
292,Bennetts Green,2290,Lake Macquarie Automotive,car_repair,4.9,24,151.686742,-32.998244,"2/49 Pacific Hwy, Bennetts Green NSW 2290, Australia"
292,Bennetts Green,2290,Mercedes-Benz Newcastle,car_repair,4.2,91,151.691324,-32.9897674,"1 Pacific Hwy, Bennetts Green NSW 2290, Australia"
292,Bennetts Green,2290,Precision Mobile Mechanics,car_repair,5,15,151.689262,-32.9993949,"12/12 Statham St, Bennetts Green NSW 2290, Australia"
292,Bennetts Green,2290,Newcastle Muffler Service,car_repair,4.7,60,151.686443,-32.9983331,"49 Pacific Hwy, Bennetts Green NSW 2290, Australia"
292,Bennetts Green,2290,Supercheap Auto Bennetts Green,car_repair,4.2,136,151.6885553,-32.995983,"7/15 Groves Rd, Bennetts Green NSW 2290, Australia"
292,Bennetts Green,2290,Caravan Spares and Repairs,car_repair,4.9,29,151.6863622,-32.9993081,"61 Pacific Hwy, Bennetts Green NSW 2290, Australia"
292,Bennetts Green,2290,All Haul Transport,car_repair,4.8,5,151.6921162,-32.9967614,"23 Templar Pl, Bennetts Green NSW 2290, Australia"
292,Bennetts Green,2290,Ultimate Auto Detailing,car_repair,4.9,13,151.6892773,-32.9993489,"unit 6/12 Statham St, Bennetts Green NSW 2290, Australia"
292,Bennetts Green,2290,BCF (Boating Camping Fishing) Bennetts Green,car_repair,4.2,157,151.6887911,-32.9960166,"7/15 Groves Rd, Bennetts Green NSW 2290, Australia"
298,Beresfield,2322,Jackson Plant and Transport Repairs,car_repair,5,4,151.6423455,-32.8106866,"2/38A Enterprise Dr, Beresfield NSW 2322, Australia"
298,Beresfield,2322,Curley's Service Station,car_repair,4.5,13,151.651415,-32.802713,"199 Anderson Dr, Beresfield NSW 2322, Australia"
298,Beresfield,2322,Ryanz Repairs & Maintenance,car_repair,5,1,151.6396556,-32.8090426,"2/5 Arunga Dr, Beresfield NSW 2322, Australia"
298,Beresfield,2322,National Truck Repairs,car_repair,4.9,11,151.6378053,-32.8072069,"4 Balook Dr, Beresfield NSW 2322, Australia"
298,Beresfield,2322,Newcastle Commercial Vehicles,car_repair,3.8,23,151.638153,-32.8116455,"1 Kinta Dr, Beresfield NSW 2322, Australia"
298,Beresfield,2322,Tyrepower Beresfield,car_repair,4.7,86,151.651933,-32.8036642,"194 Anderson Dr, Beresfield NSW 2322, Australia"
298,Beresfield,2322,Pedders Suspension Beresfield,car_repair,4,42,151.6323782,-32.8022182,"MLI Group PTY LTD, 2/13 Elwell Close MVRL53748, Beresfield NSW 2322, Australia"
298,Beresfield,2322,Streamline Automotive,car_repair,4.8,29,151.6400171,-32.8074011,"1/15 Arunga Dr, Beresfield NSW 2322, Australia"
298,Beresfield,2322,Hunter LDV,car_repair,5,1,151.638191,-32.8118114,"1 Kinta Dr, Beresfield NSW 2322, Australia"
298,Beresfield,2322,Daimler Trucks Newcastle,car_repair,4.3,18,151.6372829,-32.81198430000001,"3 Babilla Cl, Beresfield NSW 2322, Australia"
298,Beresfield,2322,Auto Tech Complete,car_repair,5,18,151.6333188,-32.8010069,"90 Weakleys Dr, Beresfield NSW 2322, Australia"
298,Beresfield,2322,National Central,car_repair,4.2,10,151.6384158,-32.8074277,"23 Kinta Dr, Beresfield NSW 2322, Australia"
298,Beresfield,2322,Natrad Beresfield,car_repair,4.2,5,151.6386,-32.809064,"3/18 Kinta Dr, Beresfield NSW 2322, Australia"
298,Beresfield,2322,NAPA Auto Parts Beresfield,car_repair,4.7,20,151.6396063,-32.8060448,"79 Enterprise Dr, Beresfield NSW 2322, Australia"
298,Beresfield,2322,Active 4X4,car_repair,3.8,22,151.644773,-32.798773,"263 Anderson Dr, Beresfield NSW 2322, Australia"
298,Beresfield,2322,Driveline Services Australia,car_repair,4.8,4,151.640151,-32.810838,"26 Enterprise Dr, Beresfield NSW 2322, Australia"
298,Beresfield,2322,R&J Batteries,car_repair,4.9,19,151.6404607,-32.8108601,"2/28 Enterprise Dr, Beresfield NSW 2322, Australia"
298,Beresfield,2322,O'Neills Tyre and Autocare,car_repair,4.6,32,151.6374149,-32.8110942,"2 Babilla Cl, Beresfield NSW 2322, Australia"
298,Beresfield,2322,NBA&E,car_repair,5,12,151.6391497,-32.8080383,"2/26 Kinta Dr, Beresfield NSW 2322, Australia"
298,Beresfield,2322,Full Throttle Custom Garage,car_repair,5,4,151.6312518,-32.8096192,"Unit 2/10 Yangan Dr, Beresfield NSW 2322, Australia"
298,Beresfield,2322,Lube Mobile Beresfield,car_repair,4.6,73,151.6332605,-32.8118948,"6/3 Kullara Cl, Beresfield NSW 2322, Australia"
298,Beresfield,2322,Constant Tyre Inflation Systems,car_repair,0,0,151.6386019,-32.8100092,"41 Enterprise Dr, Beresfield NSW 2322, Australia"
298,Beresfield,2322,Transport & Industrial Hydraulics Newcastle,car_repair,5,1,151.6389047,-32.8092914,"14 Kinta Dr, Beresfield NSW 2322, Australia"
298,Beresfield,2322,Hardy Spicer Newcastle,car_repair,5,1,151.6339764,-32.8001018,"2 Canavan Dr, Beresfield NSW 2322, Australia"
301,Berkeley Vale,2261,Tumbi Umbi Radiator Service,car_repair,5,1,151.443489,-33.358463,"5 Bon-Mace Cl, Berkeley Vale NSW 2261, Australia"
301,Berkeley Vale,2261,Douglas Automotive and Performance,car_repair,5,4,151.4432881,-33.3604795,"9/2 Clare-Mace Cres, Berkeley Vale NSW 2261, Australia"
301,Berkeley Vale,2261,Advanced Tuning & Service Centre,car_repair,4.5,8,151.4434782,-33.3607774,"2 Clare-Mace Cres, Berkeley Vale NSW 2261, Australia"
301,Berkeley Vale,2261,Aumotorsport Pty Ltd,car_repair,4.2,6,151.4236214,-33.3275705,"Unit 2/4 Craftsman Ave, Berkeley Vale NSW 2261, Australia"
301,Berkeley Vale,2261,Motorcycle Gear,car_repair,4.7,6,151.4383104,-33.3304226,"19 Platypus Rd, Berkeley Vale NSW 2261, Australia"
301,Berkeley Vale,2261,Bretts Truck Parts & All Filters,car_repair,3.7,114,151.421648,-33.328579,"17 Craftsman Ave, Berkeley Vale NSW 2261, Australia"
301,Berkeley Vale,2261,Tyrepower Tumbi,car_repair,4.7,69,151.4444829,-33.3593312,"1/9 Tumbi Creek Rd, Berkeley Vale NSW 2261, Australia"
301,Berkeley Vale,2261,Rite Price Tyres,car_repair,4.5,155,151.4276577,-33.3289864,"1 Enterprise Dr, Berkeley Vale NSW 2261, Australia"
301,Berkeley Vale,2261,Central Coast Mufflers,car_repair,4.6,9,151.4440924,-33.3601015,"unit 3/1 Clare-Mace Cres, Berkeley Vale NSW 2261, Australia"
301,Berkeley Vale,2261,Central Coast Tinting & Detailing,car_repair,5,3,151.4426297,-33.3583364,"9 Bon-Mace Cl, Berkeley Vale NSW 2261, Australia"
301,Berkeley Vale,2261,Elite Car Sound - Tumbi Umbi,car_repair,5,45,151.4427722,-33.3589942,"8 Bon-Mace Cl, Berkeley Vale NSW 2261, Australia"
301,Berkeley Vale,2261,JP Engines & Fabrications,car_repair,5,1,151.4419554,-33.3592811,"3/14 Clare-Mace Cres, Berkeley Vale NSW 2261, Australia"
301,Berkeley Vale,2261,"Caddy Storage, Tuggerah NSW",car_repair,4.5,15,151.427041,-33.3275,"4 Hereford St, Berkeley Vale NSW 2261, Australia"
301,Berkeley Vale,2261,Top of the Block,car_repair,3.7,3,151.441676,-33.358735,"4/10 Bon-Mace Cl, Berkeley Vale NSW 2261, Australia"
301,Berkeley Vale,2261,Road & Race Motorcycle Engineering,car_repair,4.5,6,151.4439928,-33.3592501,"2/2 Bon-Mace Cl, Berkeley Vale NSW 2261, Australia"
301,Berkeley Vale,2261,Classics & Collectibles Garage,car_repair,5,9,151.4437754,-33.3598887,"2/1 Clare-Mace Cres, Berkeley Vale NSW 2261, Australia"
301,Berkeley Vale,2261,Top Of The Block - Cylinder Head Reconditioning,car_repair,0,0,151.4416778,-33.3588011,"4/10 Bon-Mace Cl, Berkeley Vale NSW 2261, Australia"
301,Berkeley Vale,2261,Lakedge Motors,car_repair,4.9,16,151.4437025,-33.3593736,"Unit 5/4 Bon-Mace Cl, Berkeley Vale NSW 2261, Australia"
301,Berkeley Vale,2261,BM Automotive Repairs,car_repair,5,16,151.4442876,-33.3601327,"1/5 Tumbi Creek Rd, Berkeley Vale NSW 2261, Australia"
301,Berkeley Vale,2261,Berkeley Vale Auto Centre,car_repair,5,4,151.4234087,-33.3281494,"1/5 Apprentice Dr, Berkeley Vale NSW 2261, Australia"
301,Berkeley Vale,2261,Motorwise Mechanical,car_repair,5,8,151.4428941,-33.3601348,"5/8 Clare-Mace Cres, Berkeley Vale NSW 2261, Australia"
301,Berkeley Vale,2261,CARS Automotive - Berkeley Vale,car_repair,5,3,151.4429546,-33.3602468,"Unit 3/8 Clare-Mace Cres, Berkeley Vale NSW 2261, Australia"
301,Berkeley Vale,2261,EKI Automotive,car_repair,4.9,22,151.4438387,-33.3605433,"1/2-4 Clare-Mace Cres, Berkeley Vale NSW 2261, Australia"
301,Berkeley Vale,2261,AMK Auto Repairs,car_repair,4.6,16,151.4438621,-33.3587905,"7/3 Bon-Mace Cl, Berkeley Vale NSW 2261, Australia"
301,Berkeley Vale,2261,Gassed Automotive,car_repair,4.6,12,151.4226701,-33.3282654,"Unit 4/9 Apprentice Dr, Berkeley Vale NSW 2261, Australia"
301,Berkeley Vale,2261,Berkeley Vale Smash Repairs,car_repair,3.7,3,151.4238281,-33.32806,"3 Apprentice Dr, Berkeley Vale NSW 2261, Australia"
301,Berkeley Vale,2261,Coastal Smash Repairs,car_repair,5,1,151.4437754,-33.3598887,"1 Clare-Mace Cres, Berkeley Vale NSW 2261, Australia"
301,Berkeley Vale,2261,Coast Mechanical Services,car_repair,5,11,151.4247741,-33.3273923,"3/9-11 Hereford St, Berkeley Vale NSW 2261, Australia"
301,Berkeley Vale,2261,Warren Ridge Auto Centre,car_repair,4.6,5,151.4237919,-33.3280745,"1/3 Apprentice Dr, Berkeley Vale NSW 2261, Australia"
301,Berkeley Vale,2261,Beatties Auto Repairs,car_repair,3.8,9,151.443542,-33.360682,"9/2-4 Clare-Mace Cres, Berkeley Vale NSW 2261, Australia"
301,Berkeley Vale,2261,Dave Brien Automotive,car_repair,5,1,151.4416534,-33.358811,"4/10 Bon-Mace Cl, Berkeley Vale NSW 2261, Australia"
301,Berkeley Vale,2261,D&C Motorcycles,car_repair,4.6,57,151.4249616,-33.3287632,"7/3 Hereford St, Berkeley Vale NSW 2261, Australia"
301,Berkeley Vale,2261,Action Smash Repairs,car_repair,0,0,151.4413972,-33.3578384,"5/15 Bon-Mace Cl, Berkeley Vale NSW 2261, Australia"
301,Berkeley Vale,2261,Tumbi Auto & Electrics,car_repair,4.6,25,151.4409482,-33.3585383,"3/14 Bon-Mace Cl, Berkeley Vale NSW 2261, Australia"
301,Berkeley Vale,2261,Warren Ridge Smash Repairs,car_repair,5,15,151.443137,-33.3584417,"7 Bon-Mace Cl, Berkeley Vale NSW 2261, Australia"
301,Berkeley Vale,2261,Boydy's Mechanical,car_repair,4.6,19,151.4414622,-33.3578644,"1/15 Bon-Mace Cl, Berkeley Vale NSW 2261, Australia"
302,Berkshire Park,2765,Windsor All Car Tuning,car_repair,4.1,9,150.793814,-33.664825,"35 First Rd, Berkshire Park NSW 2765, Australia"
304,Bermagui,2546,Bermi Autos,car_repair,4.7,3,150.0667847,-36.4458692,"1 Sherwood Rd, Bermagui NSW 2546, Australia"
304,Bermagui,2546,Clay's Auto,car_repair,5,11,150.0758905,-36.4276399,"2/2 Bunga St, Bermagui NSW 2546, Australia"
305,Berowra,2081,Muxlow Motors,car_repair,4.2,10,151.1415741,-33.6155423,"111 Berowra Waters Rd, Berowra NSW 2081, Australia"
305,Berowra,2081,Gee Tee Motorcycles,car_repair,5,36,151.1514576,-33.6232264,"13/993 Pacific Hwy, Berowra NSW 2081, Australia"
305,Berowra,2081,Berowra Automotive,car_repair,5,4,151.1515619,-33.6234547,"13/993 Pacific Hwy, Berowra NSW 2081, Australia"
307,Berowra Heights,2082,Premier Mobile Batteries Berowra Heights,car_repair,0,0,151.1432545,-33.6073384,"12A Evelyn Cres, Berowra Heights NSW 2082, Australia"
315,Berrigan,2712,Woody Motors,car_repair,5,2,145.8115562,-35.65658,"48/52-54 Jerilderie St, Berrigan NSW 2712, Australia"
315,Berrigan,2712,Thomsons Service Centre Berrigan,car_repair,5,1,145.8079321,-35.6511351,"Lot 7 Jerilderie St, Berrigan NSW 2712, Australia"
315,Berrigan,2712,Pat Barrett’s Tyre Service,car_repair,4.6,8,145.8117702,-35.6566071,"56 Jerilderie St, Berrigan NSW 2712, Australia"
315,Berrigan,2712,Dunlop Super Dealer,car_repair,0,0,145.8117526,-35.6566108,"56 Jerilderie St, Berrigan NSW 2712, Australia"
317,Berrima,2577,Berrima Diesel Australia,car_repair,4.1,163,150.325976,-34.495827,"3483 Old Hume Hwy, Berrima NSW 2577, Australia"
319,Berry,2535,Berry Auto Repairs,car_repair,4.5,2,150.6965482,-34.7809845,"2c Old Creamery Ln, Berry NSW 2535, Australia"
319,Berry,2535,Hargroves Ag & Automotive,car_repair,5,7,150.6971102,-34.7809521,"1 Old Creamery Ln, Berry NSW 2535, Australia"
319,Berry,2535,Berry Smash Repairs,car_repair,4.9,7,150.699707,-34.775742,"132 Queen St, Berry NSW 2535, Australia"
327,Beverley Park,2217,Headlights Restoration Sydney,car_repair,0,0,151.1355635,-33.9831581,"4 Targo Rd, Beverley Park NSW 2217, Australia"
331,Bexley,2207,T&M Motor Repairs,car_repair,4.8,25,151.121224,-33.9526544,"561 Forest Rd, Bexley NSW 2207, Australia"
331,Bexley,2207,Bexley Automotive Services,car_repair,5,9,151.1286111,-33.9588889,"74 Queen Victoria St, Bexley NSW 2207, Australia"
331,Bexley,2207,Bexley Service Centre,car_repair,4.9,34,151.1252244,-33.9516069,"474 Forest Rd, Bexley NSW 2207, Australia"
331,Bexley,2207,Perfection Automotive,car_repair,4.9,157,151.1180813,-33.9580245,"620 Forest Rd, Bexley NSW 2207, Australia"
331,Bexley,2207,Sydney Automotive & Auto Electrical,car_repair,4.9,43,151.118562,-33.955096,"Bexley, 609 Forest Rd, Sydney NSW 2207, Australia"
331,Bexley,2207,Bexley Smash Repairs,car_repair,0,0,151.1214437,-33.9525995,"561 Forest Rd, Bexley NSW 2207, Australia"
331,Bexley,2207,Bexley Tyres & Automotive Centre,car_repair,4.8,161,151.11772,-33.959365,"630 Forest Rd, Bexley NSW 2207, Australia"
331,Bexley,2207,Xenos's Spanner Works,car_repair,4.9,23,151.1232754,-33.9457671,"369C Bexley Rd, Bexley NSW 2207, Australia"
331,Bexley,2207,Rocky Point Mechanical,car_repair,4.8,25,151.1288122,-33.9439913,"1/281 Forest Rd, Bexley NSW 2207, Australia"
331,Bexley,2207,Carvine smash repairs,car_repair,4.9,15,151.1182243,-33.9582163,"622 Forest Rd, Bexley NSW 2207, Australia"
331,Bexley,2207,Superb 1 Mechanical Repairs,car_repair,4.3,19,151.119601,-33.949673,"91 Stoney Creek Rd, Bexley NSW 2207, Australia"
331,Bexley,2207,St George Mechancial Repairs Pty Ltd,car_repair,4.6,49,151.1252023,-33.9501422,"19 Stoney Creek Rd, Bexley NSW 2207, Australia"
331,Bexley,2207,Forest Road Smash Repairs,car_repair,4.4,45,151.1175872,-33.9577342,"651 Forest Rd, Bexley NSW 2207, Australia"
331,Bexley,2207,St George Efi & Mechanical,car_repair,4.6,21,151.1197534,-33.9493805,"86 Stoney Creek Rd, Bexley NSW 2207, Australia"
